club,clubLabel,venue,venueLabel,latitude,longitude
http://www.wikidata.org/entity/Q18729,Reading F.C.,http://www.wikidata.org/entity/Q31656,Madejski Stadium,-0.982777777,51.42222222
http://www.wikidata.org/entity/Q18723,Queens Park Rangers F.C.,http://www.wikidata.org/entity/Q31670,Kiyan Prince Foundation Stadium,-0.232222222,51.50916667
http://www.wikidata.org/entity/Q18744,West Bromwich Albion F.C.,http://www.wikidata.org/entity/Q31678,The Hawthorns,-1.963888888,52.50916667
http://www.wikidata.org/entity/Q18739,Sunderland A.F.C.,http://www.wikidata.org/entity/Q31969,Stadium of Light,-1.388172971,54.91442907
http://www.wikidata.org/entity/Q18656,Manchester United F.C.,http://www.wikidata.org/entity/Q83457,Old Trafford,-2.291388888,53.46305556
http://www.wikidata.org/entity/Q18721,Norwich City F.C.,http://www.wikidata.org/entity/Q123017,Carrow Road,1.309166666,52.62222222
http://www.wikidata.org/entity/Q18747,West Ham United F.C.,http://www.wikidata.org/entity/Q172190,London Stadium,-0.016388888,51.53861111
http://www.wikidata.org/entity/Q18711,Aston Villa F.C.,http://www.wikidata.org/entity/Q175339,Villa Park,-1.884722222,52.50916667
http://www.wikidata.org/entity/Q18716,Newcastle United F.C.,http://www.wikidata.org/entity/Q191774,St James’ Park,-1.621666666,54.97555556
http://www.wikidata.org/entity/Q19470,Derby County F.C.,http://www.wikidata.org/entity/Q201612,Pride Park Stadium,-1.447222222,52.915
http://www.wikidata.org/entity/Q19597,Rangers F.C.,http://www.wikidata.org/entity/Q208709,Ibrox Stadium,-4.309166666,55.85305556
http://www.wikidata.org/entity/Q19593,Celtic F.C.,http://www.wikidata.org/entity/Q216037,Celtic Park,-4.205588888,55.84971111
http://www.wikidata.org/entity/Q19451,Bolton Wanderers F.C.,http://www.wikidata.org/entity/Q242772,Toughsheet Community Stadium,-2.535555555,53.58055556
http://www.wikidata.org/entity/Q19446,Blackburn Rovers F.C.,http://www.wikidata.org/entity/Q245085,Ewood Park,-2.489166666,53.72861111
http://www.wikidata.org/entity/Q18708,Fulham F.C.,http://www.wikidata.org/entity/Q318043,Craven Cottage,-0.221666666,51.475
http://www.wikidata.org/entity/Q19500,Wolverhampton Wanderers F.C.,http://www.wikidata.org/entity/Q380823,Molineux Stadium,-2.130277777,52.59027778
http://www.wikidata.org/entity/Q19587,Crewe Alexandra F.C.,http://www.wikidata.org/entity/Q389544,Alexandra Stadium,-2.435747,53.087419
http://www.wikidata.org/entity/Q19384,FK Senica,http://www.wikidata.org/entity/Q392301,Štadión FK Senica,17.376808,48.684133
http://www.wikidata.org/entity/Q18750,Wigan Athletic F.C.,http://www.wikidata.org/entity/Q494388,DW Stadium,-2.653889,53.547778
http://www.wikidata.org/entity/Q18736,Stoke City F.C.,http://www.wikidata.org/entity/Q500922,Britannia Stadium,-2.175555555,52.98833333
http://www.wikidata.org/entity/Q19592,Hartlepool United F.C.,http://www.wikidata.org/entity/Q538115,Victoria Park,-1.212722,54.689139
http://www.wikidata.org/entity/Q18732,Southampton F.C.,http://www.wikidata.org/entity/Q567339,St Mary's Stadium,-1.39111111,50.90583333
http://www.wikidata.org/entity/Q18659,Swansea City A.F.C.,http://www.wikidata.org/entity/Q580480,Liberty Stadium,-3.9351,51.6422
http://www.wikidata.org/entity/Q19490,Nottingham Forest F.C.,http://www.wikidata.org/entity/Q593446,City Ground,-1.132778,52.94
http://www.wikidata.org/entity/Q19584,Crawley Town F.C.,http://www.wikidata.org/entity/Q609115,The Peoples Pension Stadium,-0.194767,51.099706
http://www.wikidata.org/entity/Q18665,Albion Sports A.F.C.,http://www.wikidata.org/entity/Q618950,Horsfall Stadium,-1.776203,53.758856
http://www.wikidata.org/entity/Q19568,AFC Bournemouth,http://www.wikidata.org/entity/Q619094,Dean Court,-1.838333,50.735278
http://www.wikidata.org/entity/Q19473,Huddersfield Town A.F.C.,http://www.wikidata.org/entity/Q619407,Kirklees Stadium,-1.768333333,53.65416667
http://www.wikidata.org/entity/Q19453,Brighton & Hove Albion F.C.,http://www.wikidata.org/entity/Q619409,Brighton Community Stadium,-0.083277777,50.86182222
http://www.wikidata.org/entity/Q19604,Portsmouth F.C.,http://www.wikidata.org/entity/Q619531,Fratton Park,-1.063888888,50.79638889
http://www.wikidata.org/entity/Q19573,Bury F.C.,http://www.wikidata.org/entity/Q619863,Gigg Lane,-2.294722222,53.58055556
http://www.wikidata.org/entity/Q19481,Leicester City F.C.,http://www.wikidata.org/entity/Q620031,Leicester City Stadium,-1.142222222,52.62027778
http://www.wikidata.org/entity/Q19477,Hull City A.F.C.,http://www.wikidata.org/entity/Q630160,MKM Stadium,-0.367777777,53.74611111
http://www.wikidata.org/entity/Q19498,Sheffield Wednesday F.C.,http://www.wikidata.org/entity/Q642557,Hillsborough Stadium,-1.500555555,53.41138889
http://www.wikidata.org/entity/Q19458,Burnley F.C.,http://www.wikidata.org/entity/Q683112,Turf Moor,-2.230225,53.789064
http://www.wikidata.org/entity/Q19456,Bristol City F.C.,http://www.wikidata.org/entity/Q726370,Ashton Gate Stadium,-2.620278,51.44
http://www.wikidata.org/entity/Q19603,FC Twente,http://www.wikidata.org/entity/Q727389,De Grolsch Veste,6.8375,52.23666667
http://www.wikidata.org/entity/Q19518,Toulouse FC,http://www.wikidata.org/entity/Q738044,Stadium Municipal,1.434055,43.583296
http://www.wikidata.org/entity/Q19513,Montpellier Hérault Sport Club,http://www.wikidata.org/entity/Q815833,Stade de la Mosson,3.81279,43.62061
http://www.wikidata.org/entity/Q19444,Birmingham City F.C.,http://www.wikidata.org/entity/Q819179,St Andrew's,-1.868188888,52.47570278
http://www.wikidata.org/entity/Q18661,Middlesbrough F.C.,http://www.wikidata.org/entity/Q822886,Riverside Stadium,-1.216944444,54.57833333
http://www.wikidata.org/entity/Q19580,Coventry City F.C.,http://www.wikidata.org/entity/Q842077,Ricoh Arena,-1.495556,52.448056
http://www.wikidata.org/entity/Q19521,AS Saint-Étienne,http://www.wikidata.org/entity/Q861000,Stade Geoffroy-Guichard,4.390171,45.460749
http://www.wikidata.org/entity/Q18662,Cardiff City F.C.,http://www.wikidata.org/entity/Q867902,Cardiff City Stadium,-3.203056,51.472778
http://www.wikidata.org/entity/Q19449,Blackpool F.C.,http://www.wikidata.org/entity/Q870859,Bloomfield Road,-3.048056,53.804722
http://www.wikidata.org/entity/Q19601,Oldham Athletic A.F.C.,http://www.wikidata.org/entity/Q895151,Boundary Park,-2.128611111,53.55527778
http://www.wikidata.org/entity/Q19607,Sheffield United F.C.,http://www.wikidata.org/entity/Q897533,Bramall Lane,-1.470833333,53.37027778
http://www.wikidata.org/entity/Q19487,Millwall F.C.,http://www.wikidata.org/entity/Q908481,The Den,-0.050833,51.485833
http://www.wikidata.org/entity/Q19595,Leyton Orient F.C.,http://www.wikidata.org/entity/Q917727,Brisbane Road,-0.012639,51.560139
http://www.wikidata.org/entity/Q19462,Charlton Athletic F.C.,http://www.wikidata.org/entity/Q958319,The Valley,0.035632,51.487489
http://www.wikidata.org/entity/Q19482,Wimbledon F.C.,http://www.wikidata.org/entity/Q975681,Plough Lane,-0.189667,51.428472
http://www.wikidata.org/entity/Q19575,Carlisle United F.C.,http://www.wikidata.org/entity/Q994219,Brunton Park,-2.91365,54.89556
http://www.wikidata.org/entity/Q19467,Crystal Palace F.C.,http://www.wikidata.org/entity/Q1066373,Selhurst Park,-0.085555555,51.39833333
http://www.wikidata.org/entity/Q19509,Stade Rennais F.C.,http://www.wikidata.org/entity/Q1121760,Roazhon Park,-1.71282,48.10743
http://www.wikidata.org/entity/Q19442,Barnsley F.C.,http://www.wikidata.org/entity/Q1138270,Oakwell,-1.4675,53.552222
http://www.wikidata.org/entity/Q19578,Colchester United F.C.,http://www.wikidata.org/entity/Q1141371,Colchester Community Stadium,0.897703,51.9234
http://www.wikidata.org/entity/Q19612,Preston North End F.C.,http://www.wikidata.org/entity/Q1141958,Deepdale,-2.688055555,53.77222222
http://www.wikidata.org/entity/Q19585,Royal Charleroi S.C.,http://www.wikidata.org/entity/Q1147565,Stade du Pays de Charleroi,4.453787,50.414609
http://www.wikidata.org/entity/Q19495,Peterborough United F.C.,http://www.wikidata.org/entity/Q1156350,London Road Stadium,-0.240389,52.564694
http://www.wikidata.org/entity/Q19598,Notts County F.C.,http://www.wikidata.org/entity/Q1192396,Meadow Lane,-1.137222,52.9425
http://www.wikidata.org/entity/Q18529,Wrexham A.F.C.,http://www.wikidata.org/entity/Q1202579,Racecourse Ground,-3.003611,53.051944
http://www.wikidata.org/entity/Q19589,Doncaster Rovers F.C.,http://www.wikidata.org/entity/Q1336402,Keepmoat Stadium,-1.113889,53.509722
http://www.wikidata.org/entity/Q19523,A.S. Nancy-Lorraine,http://www.wikidata.org/entity/Q1341607,Stade Marcel Picot,6.21222,48.696
http://www.wikidata.org/entity/Q19512,FC Sochaux-Montbéliard,http://www.wikidata.org/entity/Q1341629,Stade Auguste Bonal,6.81116,47.51238
http://www.wikidata.org/entity/Q19066,Club Universitario de Deportes,http://www.wikidata.org/entity/Q1369426,Estadio Monumental U,-76.935972,-12.055694
http://www.wikidata.org/entity/Q19516,Lille OSC,http://www.wikidata.org/entity/Q1410402,Pierre Mauroy Stadium,3.130631,50.611962
http://www.wikidata.org/entity/Q19571,Brentford F.C.,http://www.wikidata.org/entity/Q1546623,Griffin Park,-0.302639,51.488167
http://www.wikidata.org/entity/Q18660,Altrincham F.C.,http://www.wikidata.org/entity/Q2440403,Moss Lane,-2.335158,53.383436
http://www.wikidata.org/entity/Q18831,FK Ventspils,http://www.wikidata.org/entity/Q2637796,Ventspils Olimpiskais Stadions,21.5704,57.3873
http://www.wikidata.org/entity/Q19353,FC Anzhi Makhachkala,http://www.wikidata.org/entity/Q3660718,Anji Arena,47.618587,42.907901
http://www.wikidata.org/entity/Q18528,Woking F.C.,http://www.wikidata.org/entity/Q6412727,Kingfield Stadium,-0.558811,51.306333
http://www.wikidata.org/entity/Q18527,Tamworth F.C.,http://www.wikidata.org/entity/Q7745279,The Lamb Ground,-1.688925,52.628403
http://www.wikidata.org/entity/Q18687,Lewisham Borough F.C.,http://www.wikidata.org/entity/Q15241238,Ladywell Arena,-0.02166667,51.45111111
http://www.wikidata.org/entity/Q19593,Celtic F.C.,http://www.wikidata.org/entity/Q22097642,Celtic Park,-4.2013,55.8499
http://www.wikidata.org/entity/Q18741,Tottenham Hotspur F.C.,http://www.wikidata.org/entity/Q55074091,Tottenham Hotspur Stadium,-0.066388888,51.60444444
http://www.wikidata.org/entity/Q704,Olympique Lyonnais,http://www.wikidata.org/entity/Q8507,Parc Olympique Lyonnais,4.982131,45.765224
http://www.wikidata.org/entity/Q2714,Watford F.C.,http://www.wikidata.org/entity/Q10626,Vicarage Road,-0.401606,51.649928
http://www.wikidata.org/entity/Q11961,Heracles Almelo,http://www.wikidata.org/entity/Q11969,Asito Stadion,6.649722,52.338611
http://www.wikidata.org/entity/Q10308,Real Zaragoza,http://www.wikidata.org/entity/Q17484,La Romareda,-0.901822,41.636592
http://www.wikidata.org/entity/Q8760,Deportivo de La Coruña,http://www.wikidata.org/entity/Q22130,Estadio Municipal de Abanca Riazor,-8.417372,43.368667
http://www.wikidata.org/entity/Q2674,Palermo F.C.,http://www.wikidata.org/entity/Q28500,Stadio Renzo Barbera,13.342275,38.152767
http://www.wikidata.org/entity/Q1422,Juventus FC,http://www.wikidata.org/entity/Q62149,Juventus Stadium,7.641247,45.109594
http://www.wikidata.org/entity/Q2641,SSC Napoli,http://www.wikidata.org/entity/Q82709,Stadio Diego Armando Maradona,14.193008,40.827967
http://www.wikidata.org/entity/Q8416,Novara Calcio,http://www.wikidata.org/entity/Q94583,Stadio Silvio Piola (Novara),8.595833,45.435833
http://www.wikidata.org/entity/Q6630,Ascoli Calcio 1898 FC,http://www.wikidata.org/entity/Q94591,Stadio Cino e Lillo Del Duca,13.594167,42.861111
http://www.wikidata.org/entity/Q8643,Vicenza Calcio,http://www.wikidata.org/entity/Q94612,Stadio Romeo Menti,11.555556,45.544167
http://www.wikidata.org/entity/Q6664,AC Cesena,http://www.wikidata.org/entity/Q94625,Stadio Dino Manuzzi,12.261944,44.140556
http://www.wikidata.org/entity/Q6703,Empoli FC,http://www.wikidata.org/entity/Q94633,Stadio Carlo Castellani,10.955,43.726389
http://www.wikidata.org/entity/Q8408,Modena F.C.,http://www.wikidata.org/entity/Q94646,Stadio Alberto Braglia,10.923333,44.653611
http://www.wikidata.org/entity/Q8623,Ternana Calcio,http://www.wikidata.org/entity/Q94649,Stadio Libero Liberati,12.635278,42.562222
http://www.wikidata.org/entity/Q6651,Brescia Calcio,http://www.wikidata.org/entity/Q94946,Stadio Mario Rigamonti,10.236944,45.570556
http://www.wikidata.org/entity/Q8633,Varese Calcio,http://www.wikidata.org/entity/Q115532,Stadio Franco Ossola,8.800631,45.834633
http://www.wikidata.org/entity/Q8455,F.C. Pro Vercelli 1892,http://www.wikidata.org/entity/Q115535,Stadio Silvio Piola,8.421335,45.319817
http://www.wikidata.org/entity/Q6721,U.S. Grosseto 1912,http://www.wikidata.org/entity/Q115545,Stadio Olimpico Carlo Zecchini,11.1075,42.758889
http://www.wikidata.org/entity/Q6690,F.C. Crotone,http://www.wikidata.org/entity/Q115554,Stadio Ezio Scida,17.116667,39.079167
http://www.wikidata.org/entity/Q6673,Associazione Sportiva Cittadella,http://www.wikidata.org/entity/Q115582,Stadio Pier Cesare Tombolato,11.781111,45.642778
http://www.wikidata.org/entity/Q8428,Calcio Padova,http://www.wikidata.org/entity/Q115585,Stadio Euganeo,11.858333,45.432222
http://www.wikidata.org/entity/Q8615,Spezia Calcio,http://www.wikidata.org/entity/Q115586,Stadio Alberto Picco,9.808611,44.102222
http://www.wikidata.org/entity/Q10499,Córdoba CF,http://www.wikidata.org/entity/Q121879,Estadio Nuevo Arcángel,-4.764642,37.872294
http://www.wikidata.org/entity/Q8723,Real Betis Balompié,http://www.wikidata.org/entity/Q126844,Estadio Benito Villamarín,-5.981611,37.356403
http://www.wikidata.org/entity/Q631,Inter Milan,http://www.wikidata.org/entity/Q133566,Giuseppe Meazza Stadium,9.123888888,45.47805556
http://www.wikidata.org/entity/Q1543,AC Milan,http://www.wikidata.org/entity/Q133566,Giuseppe Meazza Stadium,9.123888888,45.47805556
http://www.wikidata.org/entity/Q10319,Real Valladolid,http://www.wikidata.org/entity/Q151816,Estadio Nuevo José Zorrilla,-4.761111,41.644444
http://www.wikidata.org/entity/Q4512,VfB Stuttgart,http://www.wikidata.org/entity/Q152349,MHPArena,9.231944,48.792222
http://www.wikidata.org/entity/Q8466,1. FC Kaiserslautern,http://www.wikidata.org/entity/Q154298,Fritz Walter Stadium,7.775833,49.434444
http://www.wikidata.org/entity/Q2609,SS Lazio,http://www.wikidata.org/entity/Q159884,Stadio Olimpico,12.45472222,41.93388889
http://www.wikidata.org/entity/Q2739,A.S. Roma,http://www.wikidata.org/entity/Q159884,Stadio Olimpico,12.45472222,41.93388889
http://www.wikidata.org/entity/Q9617,Arsenal F.C.,http://www.wikidata.org/entity/Q163995,Emirates Stadium,-0.108611111,51.555
http://www.wikidata.org/entity/Q8682,Real Madrid CF,http://www.wikidata.org/entity/Q164027,Santiago Bernabéu Stadium,-3.68835,40.45306
http://www.wikidata.org/entity/Q9616,Chelsea F.C.,http://www.wikidata.org/entity/Q171458,Stamford Bridge,-0.191111111,51.48166667
http://www.wikidata.org/entity/Q8687,Athletic Club,http://www.wikidata.org/entity/Q182864,San Mamés Stadium,-2.949369,43.264205
http://www.wikidata.org/entity/Q12236,Racing de Santander,http://www.wikidata.org/entity/Q195391,Campos de Sport de El Sardinero,-3.793333,43.476389
http://www.wikidata.org/entity/Q10333,Valencia CF,http://www.wikidata.org/entity/Q202762,Mestalla Stadium,-0.358333,39.474722
http://www.wikidata.org/entity/Q2768,Torino FC,http://www.wikidata.org/entity/Q214629,Stadio Olimpico Grande Torino,7.65,45.041667
http://www.wikidata.org/entity/Q2052,ACF Fiorentina,http://www.wikidata.org/entity/Q270474,Stadio Artemio Franchi,11.282258,43.780822
http://www.wikidata.org/entity/Q1457,U.C. Sampdoria,http://www.wikidata.org/entity/Q271568,Stadio Luigi Ferraris,8.952428,44.416431
http://www.wikidata.org/entity/Q2074,Genoa CFC,http://www.wikidata.org/entity/Q271568,Stadio Luigi Ferraris,8.952428,44.416431
http://www.wikidata.org/entity/Q10329,Sevilla FC,http://www.wikidata.org/entity/Q275429,Ramón Sánchez Pizjuán Stadium,-5.970467,37.383878
http://www.wikidata.org/entity/Q7156,FC Barcelona,http://www.wikidata.org/entity/Q275715,Lluís Companys Olympic Stadium,2.155556,41.364722
http://www.wikidata.org/entity/Q8835,RCD Mallorca,http://www.wikidata.org/entity/Q276163,Estadi Mallorca Son Moix,2.63,39.59
http://www.wikidata.org/entity/Q6748,S.S. Juve Stabia,http://www.wikidata.org/entity/Q276784,Stadio Romeo Menti,14.494444,40.706667
http://www.wikidata.org/entity/Q6641,SSC Bari,http://www.wikidata.org/entity/Q328698,Stadio San Nicola,16.840072,41.084736
http://www.wikidata.org/entity/Q6463,FC St. Pauli,http://www.wikidata.org/entity/Q339572,Millerntor-Stadion,9.967778,53.554444
http://www.wikidata.org/entity/Q8648,Lanciano Calcio 1920,http://www.wikidata.org/entity/Q403396,Stadio Guido Biondi,14.382222,42.219722
http://www.wikidata.org/entity/Q8780,RCD Espanyol de Barcelona,http://www.wikidata.org/entity/Q473223,RCDE Stadium,2.075667,41.347861
http://www.wikidata.org/entity/Q11938,PSV Eindhoven,http://www.wikidata.org/entity/Q500972,Philips Stadion,5.4674,51.4417
http://www.wikidata.org/entity/Q8812,Granada CF,http://www.wikidata.org/entity/Q574565,Estadio Nuevo Los Cármeness,-3.595736,37.152967
http://www.wikidata.org/entity/Q2693,Parma Calcio 1913,http://www.wikidata.org/entity/Q610546,Stadio Ennio Tardini,10.33844444,44.79491667
http://www.wikidata.org/entity/Q9426,Stevenage F.C.,http://www.wikidata.org/entity/Q619353,Broadhall Way,-0.193608,51.889839
http://www.wikidata.org/entity/Q9653,Ipswich Town F.C.,http://www.wikidata.org/entity/Q619558,Portman Road,1.144830555,52.05506111
http://www.wikidata.org/entity/Q2798,Udinese Calcio,http://www.wikidata.org/entity/Q640031,Stadio Friuli,13.200136,46.081603
http://www.wikidata.org/entity/Q12249,Recreativo de Huelva,http://www.wikidata.org/entity/Q654329,Estadio Nuevo Colombino,-6.954167,37.246389
http://www.wikidata.org/entity/Q8857,Málaga CF,http://www.wikidata.org/entity/Q695879,La Rosaleda Stadium,-4.426422,36.734092
http://www.wikidata.org/entity/Q10467,FC Barcelona Atlètic,http://www.wikidata.org/entity/Q725581,Miniestadi,2.118056,41.379722
http://www.wikidata.org/entity/Q10286,Club Atlético Osasuna,http://www.wikidata.org/entity/Q735783,El Sadar Stadium,-1.636944,42.796667
http://www.wikidata.org/entity/Q2037,AC ChievoVerona,http://www.wikidata.org/entity/Q737093,Stadio Marcantonio Bentegodi,10.968647,45.435356
http://www.wikidata.org/entity/Q8639,Hellas Verona FC,http://www.wikidata.org/entity/Q737093,Stadio Marcantonio Bentegodi,10.968647,45.435356
http://www.wikidata.org/entity/Q12297,Villarreal CF,http://www.wikidata.org/entity/Q741157,Estadio de la Cerámica,-0.103611,39.944167
http://www.wikidata.org/entity/Q1893,Bologna F.C. 1909,http://www.wikidata.org/entity/Q757182,Stadio Renato Dall'Ara,11.309719,44.49362
http://www.wikidata.org/entity/Q2018,Catania FC,http://www.wikidata.org/entity/Q769462,Stadio Angelo Massimino,15.071389,37.515833
http://www.wikidata.org/entity/Q12230,Real Murcia,http://www.wikidata.org/entity/Q770946,Estadio Nueva Condomina,-1.144722,38.042222
http://www.wikidata.org/entity/Q6767,US Livorno 1915,http://www.wikidata.org/entity/Q777535,Stadio Armando Picchi,10.314167,43.526667
http://www.wikidata.org/entity/Q2756,Siena FC,http://www.wikidata.org/entity/Q778098,Stadio Artemio Franchi,11.326111,43.321667
http://www.wikidata.org/entity/Q1886,Atalanta BC,http://www.wikidata.org/entity/Q780526,Stadio Atleti Azzurri d'Italia,9.680833,45.708889
http://www.wikidata.org/entity/Q10315,Real Sociedad,http://www.wikidata.org/entity/Q917845,Anoeta Stadium,-1.973617,43.301378
http://www.wikidata.org/entity/Q8806,Getafe CF,http://www.wikidata.org/entity/Q929109,Estadio Coliseum,-3.714722,40.325556
http://www.wikidata.org/entity/Q12278,Sporting de Gijón,http://www.wikidata.org/entity/Q929315,Campos de Sport del Sardinero,-5.637222,43.536111
http://www.wikidata.org/entity/Q11963,Hércules CF,http://www.wikidata.org/entity/Q945070,Estadio José Rico Pérez,-0.4925,38.357222
http://www.wikidata.org/entity/Q10512,Elche CF,http://www.wikidata.org/entity/Q953600,Estadio Manuel Martínez Valero,-0.663333,38.266944
http://www.wikidata.org/entity/Q12168,Sociedad Deportiva Ponferradina,http://www.wikidata.org/entity/Q979112,Estadio El Toralín,-6.599972,42.5574
http://www.wikidata.org/entity/Q10300,Rayo Vallecano,http://www.wikidata.org/entity/Q983806,Campo de Fútbol de Vallecas,-3.658961,40.391944
http://www.wikidata.org/entity/Q11979,UD Las Palmas,http://www.wikidata.org/entity/Q991419,Gran Canaria Stadium,-15.456667,28.1
http://www.wikidata.org/entity/Q13381,U.S. Triestina Calcio 1918,http://www.wikidata.org/entity/Q1086620,Stadio Nereo Rocco,13.792778,45.6225
http://www.wikidata.org/entity/Q8823,Levante UD,http://www.wikidata.org/entity/Q1122715,Estadi Ciutat de València,-0.364167,39.494722
http://www.wikidata.org/entity/Q10407,Unión Deportiva Almería,http://www.wikidata.org/entity/Q1130617,Estadio de los Juegos Mediterraneos,-2.435278,36.84
http://www.wikidata.org/entity/Q12158,Club Deportivo Numancia de Soria,http://www.wikidata.org/entity/Q1219014,Nuevo Estadio Los Pajaritos,-2.467778,41.754444
http://www.wikidata.org/entity/Q12260,Centre d'Esports Sabadell Futbol Club,http://www.wikidata.org/entity/Q1313926,Estadi de la Nova Creu Alta,2.091944,41.554722
http://www.wikidata.org/entity/Q8780,RCD Espanyol de Barcelona,http://www.wikidata.org/entity/Q1325234,Estadi de Sarrià,2.133333333,41.39305556
http://www.wikidata.org/entity/Q8749,RC Celta de Vigo,http://www.wikidata.org/entity/Q1326578,Abanca Balaídos Stadium,-8.740328,42.211861
http://www.wikidata.org/entity/Q11984,Club Deportivo Lugo,http://www.wikidata.org/entity/Q1348052,Estadio Anxo Carro,-7.570833,43.003333
http://www.wikidata.org/entity/Q11997,CD Mirandés,http://www.wikidata.org/entity/Q1348065,Estadio Municipal de Anduva,-2.935556,42.680833
http://www.wikidata.org/entity/Q11955,Club Deportivo Guadalajara,http://www.wikidata.org/entity/Q1348123,Estadio Pedro Escartín,-3.182657,40.634278
http://www.wikidata.org/entity/Q11971,Sociedad Deportiva Huesca,http://www.wikidata.org/entity/Q1369197,Estadio El Alcoraz,-0.424444,42.131944
http://www.wikidata.org/entity/Q12308,Xerez C.D.,http://www.wikidata.org/entity/Q1369475,Estadio Municipal de Chapín,-6.120278,36.689167
http://www.wikidata.org/entity/Q10383,CD Quesada,http://www.wikidata.org/entity/Q1369483,Estadio Municipal de Santo Domingo,-3.840556,40.338889
http://www.wikidata.org/entity/Q8701,Atlético de Madrid,http://www.wikidata.org/entity/Q1369687,Metropolitano Stadium,-3.599444,40.436111
http://www.wikidata.org/entity/Q2710,Delfino Pescara 1936,http://www.wikidata.org/entity/Q1509993,Stadio Adriatico,14.22944444,42.45527778
http://www.wikidata.org/entity/Q8476,AS Reggina 1914,http://www.wikidata.org/entity/Q1538773,Stadio Oreste Granillo,15.635278,38.092778
http://www.wikidata.org/entity/Q13385,SPAL,http://www.wikidata.org/entity/Q1575161,Stadio Paolo Mazza,11.6075,44.839722
http://www.wikidata.org/entity/Q8603,US Sassuolo Calcio,http://www.wikidata.org/entity/Q1887221,Mapei Stadium - Città del Tricolore,10.649722,44.714722
http://www.wikidata.org/entity/Q11945,Girona FC,http://www.wikidata.org/entity/Q2097709,Montilivi Stadium,2.828611,41.961389
http://www.wikidata.org/entity/Q9408,Barnet F.C.,http://www.wikidata.org/entity/Q14437690,The Hive Stadium,-0.291785,51.6026
http://www.wikidata.org/entity/Q5794,Everton F.C.,http://www.wikidata.org/entity/Q29347805,Hill Dickinson Stadium,-3.0027851,53.4250789
http://www.wikidata.org/entity/Q1900,Cagliari Calcio,http://www.wikidata.org/entity/Q30880646,Unipol Domus,9.137416666,39.19969444
http://www.wikidata.org/entity/Q51974,Hamburger SV,http://www.wikidata.org/entity/Q1055,Hamburg,10,53.55
http://www.wikidata.org/entity/Q80958,Botafogo F.R.,http://www.wikidata.org/entity/Q17489,Estádio Nilton Santos,-43.292269,-22.893172
http://www.wikidata.org/entity/Q50602,Manchester City F.C.,http://www.wikidata.org/entity/Q48159,Etihad Stadium,-2.200277777,53.48305556
http://www.wikidata.org/entity/Q60495,Flamurtari Vlorë,http://www.wikidata.org/entity/Q60676,Flamurtari Stadium,19.48898611,40.45592222
http://www.wikidata.org/entity/Q51974,Hamburger SV,http://www.wikidata.org/entity/Q150933,Volksparkstadion,9.898611,53.586944
http://www.wikidata.org/entity/Q102720,Hertha BSC,http://www.wikidata.org/entity/Q151374,Berlin Olympic Stadium,13.23944444,52.51472222
http://www.wikidata.org/entity/Q104770,1. FC Köln,http://www.wikidata.org/entity/Q151893,RheinEnergie Stadion,6.875,50.933611
http://www.wikidata.org/entity/Q101959,Borussia Mönchengladbach,http://www.wikidata.org/entity/Q154074,Borussia-Park,6.385463888,51.17458333
http://www.wikidata.org/entity/Q51976,SV Werder Bremen,http://www.wikidata.org/entity/Q154475,Weserstadion,8.8375,53.066389
http://www.wikidata.org/entity/Q80987,Fluminense F.C.,http://www.wikidata.org/entity/Q155174,Maracanã Stadium,-43.23016389,-22.91216667
http://www.wikidata.org/entity/Q101859,VfL Wolfsburg,http://www.wikidata.org/entity/Q155603,Volkswagen Arena,10.803889,52.431944
http://www.wikidata.org/entity/Q104761,Bayer 04 Leverkusen,http://www.wikidata.org/entity/Q156630,BayArena,7.002205555,51.03825556
http://www.wikidata.org/entity/Q52942,Lech Poznań,http://www.wikidata.org/entity/Q188699,Enea Stadion,16.858056,52.397222
http://www.wikidata.org/entity/Q81888,AFC Ajax,http://www.wikidata.org/entity/Q207109,Johan Cruyff Arena,4.941944444,52.31416667
http://www.wikidata.org/entity/Q117996,Al-Shorta Baghdad,http://www.wikidata.org/entity/Q285983,Al-Shaab Stadium,44.435438,33.324906
http://www.wikidata.org/entity/Q75729,Sporting CP,http://www.wikidata.org/entity/Q287359,Estádio José Alvalade,-9.160783333,38.76119444
http://www.wikidata.org/entity/Q107818,FC Energie Cottbus,http://www.wikidata.org/entity/Q290234,Stadion der Freundschaft,14.345556,51.751389
http://www.wikidata.org/entity/Q106394,SC Freiburg,http://www.wikidata.org/entity/Q311458,Dreisamstadion,7.893056,47.988889
http://www.wikidata.org/entity/Q48953,Wycombe Wanderers F.C.,http://www.wikidata.org/entity/Q351946,Adams Park,-0.800277777,51.63055556
http://www.wikidata.org/entity/Q105861,VfL Bochum,http://www.wikidata.org/entity/Q373769,Ruhrstadion,7.236489,51.489944
http://www.wikidata.org/entity/Q105254,1. FSV Mainz 05,http://www.wikidata.org/entity/Q392494,Mewa Arena,8.224167,49.984167
http://www.wikidata.org/entity/Q48951,Southend United F.C.,http://www.wikidata.org/entity/Q475446,Roots Hall,0.701556,51.549
http://www.wikidata.org/entity/Q80882,Makid F.C.,http://www.wikidata.org/entity/Q502799,Estadio Feliciano Gambarte,-68.839444,-32.920278
http://www.wikidata.org/entity/Q82948,Kuala Lumpur FA,http://www.wikidata.org/entity/Q567218,KLFA Stadium,101.7213722,3.100536111
http://www.wikidata.org/entity/Q105853,Karlsruher SC,http://www.wikidata.org/entity/Q590268,Wildparkstadion,8.413055555,49.02
http://www.wikidata.org/entity/Q113046,Joe Public F.C.,http://www.wikidata.org/entity/Q617575,Marvin Lee Stadium,-61.384761,10.641608
http://www.wikidata.org/entity/Q73971,Clube Náutico Capibaribe,http://www.wikidata.org/entity/Q640421,Estádio dos Aflitos,-34.896667,-8.040556
http://www.wikidata.org/entity/Q113000,KV Mechelen,http://www.wikidata.org/entity/Q649755,AFAS Stadion KV Mechelen,4.486389,51.037222
http://www.wikidata.org/entity/Q124518,CD Málaga,http://www.wikidata.org/entity/Q695879,La Rosaleda Stadium,-4.426422,36.734092
http://www.wikidata.org/entity/Q84036,La Horquetta Rangers F.C.,http://www.wikidata.org/entity/Q702811,Hasely Crawford Stadium,-61.533033,10.661522
http://www.wikidata.org/entity/Q113009,Defence Force F.C.,http://www.wikidata.org/entity/Q702811,Hasely Crawford Stadium,-61.533033,10.661522
http://www.wikidata.org/entity/Q105844,Arminia Bielefeld,http://www.wikidata.org/entity/Q706435,Bielefelder Alm,8.516944,52.031389
http://www.wikidata.org/entity/Q80955,Santos F.C.,http://www.wikidata.org/entity/Q741755,Estádio Urbano Caldeira,-46.338889,-23.951111
http://www.wikidata.org/entity/Q84044,Central F.C.,http://www.wikidata.org/entity/Q757535,Ato Boldon Stadium,-61.41722222,10.42472222
http://www.wikidata.org/entity/Q73965,Al Hilal SFC,http://www.wikidata.org/entity/Q763077,King Fahd Sports City,46.839236,24.788206
http://www.wikidata.org/entity/Q75407,Al-Mina'a SC,http://www.wikidata.org/entity/Q764402,Al Mina'a Stadium,47.778155,30.552356
http://www.wikidata.org/entity/Q114818,Metallurg Bekabad,http://www.wikidata.org/entity/Q797808,Metallurg Bekabad Stadium,69.27919,40.213367
http://www.wikidata.org/entity/Q75684,S.C. Braga,http://www.wikidata.org/entity/Q849239,Estádio Municipal de Braga,-8.4308,41.5624
http://www.wikidata.org/entity/Q80845,S.C. Internacional,http://www.wikidata.org/entity/Q1050224,Estádio Beira-Rio,-51.236086,-30.065614
http://www.wikidata.org/entity/Q80886,Club Atlético Tigre,http://www.wikidata.org/entity/Q1067384,Estadio José Dellagiovanna,-58.542219,-34.449333
http://www.wikidata.org/entity/Q60214,Club YLA,http://www.wikidata.org/entity/Q1070150,Jan Breydel Stadium,3.181311,51.193269
http://www.wikidata.org/entity/Q49711,Maccabi Petah Tikva F.C.,http://www.wikidata.org/entity/Q1129090,HaMoshava Stadium,34.865078,32.104197
http://www.wikidata.org/entity/Q54988,FC Baku,http://www.wikidata.org/entity/Q1138958,Tofiq Bahramov Stadium,49.852417,40.397333
http://www.wikidata.org/entity/Q120705,Dalkurd FF,http://www.wikidata.org/entity/Q1238576,Domnarvsvallen,15.43416667,60.495
http://www.wikidata.org/entity/Q79380,Zhejiang Professional F.C.,http://www.wikidata.org/entity/Q1302940,Huanglong Sports Center,120.129,30.2683
http://www.wikidata.org/entity/Q73996,KF Skënderbeu Korçë,http://www.wikidata.org/entity/Q1336599,Skënderbeu Stadium,20.782778,40.625833
http://www.wikidata.org/entity/Q58266,Ghaxaq F.C.,http://www.wikidata.org/entity/Q1354010,Ta' Qali National Stadium,14.41537222,35.89486389
http://www.wikidata.org/entity/Q60880,Qrendi F.C.,http://www.wikidata.org/entity/Q1354010,Ta' Qali National Stadium,14.41537222,35.89486389
http://www.wikidata.org/entity/Q75801,Mdina Knights F.C.,http://www.wikidata.org/entity/Q1354010,Ta' Qali National Stadium,14.41537222,35.89486389
http://www.wikidata.org/entity/Q75836,Luqa St. Andrew's F.C.,http://www.wikidata.org/entity/Q1354010,Ta' Qali National Stadium,14.41537222,35.89486389
http://www.wikidata.org/entity/Q80351,Senglea Athletic F.C.,http://www.wikidata.org/entity/Q1354010,Ta' Qali National Stadium,14.41537222,35.89486389
http://www.wikidata.org/entity/Q80899,Unión de Santa Fe,http://www.wikidata.org/entity/Q1369026,Estadio 15 de Abril,-60.715867,-31.631853
http://www.wikidata.org/entity/Q80897,Club Atlético Colón,http://www.wikidata.org/entity/Q1369111,Estadio Brigadier General Estanislao López,-60.725394,-31.663217
http://www.wikidata.org/entity/Q112528,SpVgg Landshut,http://www.wikidata.org/entity/Q1384007,Q1384007,12.1383,48.5322
http://www.wikidata.org/entity/Q82429,C.S. Herediano,http://www.wikidata.org/entity/Q1656772,Estadio Eladio Rosabal Cordero,-84.123065,9.99963
http://www.wikidata.org/entity/Q81566,KS Vllaznia Shkodër,http://www.wikidata.org/entity/Q1870384,Loro Boriçi Stadium,19.506558,42.070031
http://www.wikidata.org/entity/Q48950,Rotherham United F.C.,http://www.wikidata.org/entity/Q1983118,New York Stadium,-1.362,53.4279
http://www.wikidata.org/entity/Q94571,Club Blooming,http://www.wikidata.org/entity/Q2628469,Estadio Ramón Tahuichi Aguilera,-63.183873,-17.796067
http://www.wikidata.org/entity/Q75729,Sporting CP,http://www.wikidata.org/entity/Q3059094,Estádio José Alvalade (1956),-9.1586173,38.7628177
http://www.wikidata.org/entity/Q81635,KF Teuta Durrës,http://www.wikidata.org/entity/Q3300718,Niko Dovana Stadium,19.44944444,41.32583333
http://www.wikidata.org/entity/Q81635,KF Teuta Durrës,http://www.wikidata.org/entity/Q3300718,Niko Dovana Stadium,19.449856,41.326081
http://www.wikidata.org/entity/Q94718,Sulaymaniya FC,http://www.wikidata.org/entity/Q3389462,Sulaymaniyah Stadium,45.4289,35.5498
http://www.wikidata.org/entity/Q94605,FK Spartak Subotica,http://www.wikidata.org/entity/Q3435895,Subotica City Stadium,19.676958,46.081781
http://www.wikidata.org/entity/Q74030,Football Bourg-en-Bresse Péronnas 01,http://www.wikidata.org/entity/Q3495731,Stade Marcel-Verchère,5.2371,46.21002
http://www.wikidata.org/entity/Q94008,Impuls FC Dilijan,http://www.wikidata.org/entity/Q3655988,Dilijan City Stadium,44.85638889,40.73694444
http://www.wikidata.org/entity/Q80964,Sociedade Esportiva Palmeiras,http://www.wikidata.org/entity/Q4788902,Allianz Parque,-46.678417,-23.527556
http://www.wikidata.org/entity/Q98921,Ipatinga Futebol Clube,http://www.wikidata.org/entity/Q4788929,Arena do Jacaré,-44.222022,-19.478794
http://www.wikidata.org/entity/Q60695,Besa Kavajë,http://www.wikidata.org/entity/Q4896162,Besa Stadium,19.553247,41.188558
http://www.wikidata.org/entity/Q80921,San Martín de San Juan,http://www.wikidata.org/entity/Q5400254,Estadio Ingeniero Hilario Sánchez,-68.530289,-31.519847
http://www.wikidata.org/entity/Q72521,Johor Darul Takzim F.C.,http://www.wikidata.org/entity/Q5929782,Tan Sri Dato Haji Hassan Yunos Stadium,103.7513722,1.497575
http://www.wikidata.org/entity/Q60701,KF Laçi,http://www.wikidata.org/entity/Q6506220,Laçi Stadium,19.711672,41.64248
http://www.wikidata.org/entity/Q125330,Bontang FC,http://www.wikidata.org/entity/Q6933774,Mulawarman Stadium,117.461239,0.143111
http://www.wikidata.org/entity/Q59645,FC Ryukyu Okinawa,http://www.wikidata.org/entity/Q7082016,Okinawa Athletic Stadium,127.820993,26.308612
http://www.wikidata.org/entity/Q112864,North East Stars,http://www.wikidata.org/entity/Q7418109,Sangre Grande Regional Complex,-61.13074167,10.59919722
http://www.wikidata.org/entity/Q111516,Phoenix Rising FC,http://www.wikidata.org/entity/Q7438198,Scottsdale Stadium,-111.921111,33.488333
http://www.wikidata.org/entity/Q120064,Luftëtari Gjirokastër,http://www.wikidata.org/entity/Q7631296,Subi Bakiri Stadium,20.1381,40.0812
http://www.wikidata.org/entity/Q73708,FK Kukësi,http://www.wikidata.org/entity/Q8069354,Zeqir Ymeri Stadium,20.42027778,42.07888889
http://www.wikidata.org/entity/Q111516,Phoenix Rising FC,http://www.wikidata.org/entity/Q12065608,Peoria Sports Complex,-112.2332,33.6319
http://www.wikidata.org/entity/Q69505,Persiba Bantul,http://www.wikidata.org/entity/Q14476212,Sultan Agung Stadium,110.3803889,-7.87525
http://www.wikidata.org/entity/Q48954,York City F.C.,http://www.wikidata.org/entity/Q20876317,York Community Stadium,-1.052777777,53.98472222
http://www.wikidata.org/entity/Q111516,Phoenix Rising FC,http://www.wikidata.org/entity/Q29098113,Casino Arizona Field,-111.9055556,33.4375
http://www.wikidata.org/entity/Q108708,CF Fuenlabrada,http://www.wikidata.org/entity/Q32363619,Estadio Fernando Torres,-3.8260961,40.2917128
http://www.wikidata.org/entity/Q72521,Johor Darul Takzim F.C.,http://www.wikidata.org/entity/Q48727156,Sultan Ibrahim Stadium,103.61925,1.481722222
http://www.wikidata.org/entity/Q83575,Persegres Gresik United,http://www.wikidata.org/entity/Q55064950,Gelora Joko Samudro Stadium,112.65075,-7.185388888
http://www.wikidata.org/entity/Q64884,Orange County SC,http://www.wikidata.org/entity/Q58215304,Championship Soccer Stadium,-117.739335,33.67446
http://www.wikidata.org/entity/Q106394,SC Freiburg,http://www.wikidata.org/entity/Q64586775,Europa-Park-Stadion,7.830006,48.021536
http://www.wikidata.org/entity/Q111516,Phoenix Rising FC,http://www.wikidata.org/entity/Q106506352,Phoenix Rising Soccer Stadium,-111.9784722,33.27011111
http://www.wikidata.org/entity/Q72844,Al-Ettifaq FC,http://www.wikidata.org/entity/Q126391645,Al-Ettifaq Club Stadium,50.18114278,26.35057111
http://www.wikidata.org/entity/Q48911,F.C. Lorient,http://www.wikidata.org/entity/Q39189,Stade du Moustoir,-3.36929,47.74869
http://www.wikidata.org/entity/Q42412,FC Emmenbrücke,http://www.wikidata.org/entity/Q42401,Stadion Gersag,8.283611,47.079722
http://www.wikidata.org/entity/Q48664,Villa Teresa,http://www.wikidata.org/entity/Q48709,Estadio José Nasazzi,-56.209033,-34.861525
http://www.wikidata.org/entity/Q22707,TSG 1899 Hoffenheim,http://www.wikidata.org/entity/Q129870,PreZero-Arena,8.888278,49.239
http://www.wikidata.org/entity/Q29390,A.C.R. Messina,http://www.wikidata.org/entity/Q144100,Stadio San Filippo,15.520833,38.161389
http://www.wikidata.org/entity/Q41420,Borussia Dortmund,http://www.wikidata.org/entity/Q150928,Westfalenstadion,7.451667,51.4925
http://www.wikidata.org/entity/Q32494,Schalke 04,http://www.wikidata.org/entity/Q150961,Arena AufSchalke,7.067588888,51.55450278
http://www.wikidata.org/entity/Q33748,Hannover 96,http://www.wikidata.org/entity/Q152633,Niedersachsenstadion,9.731111,52.36
http://www.wikidata.org/entity/Q38245,Eintracht Frankfurt,http://www.wikidata.org/entity/Q157273,Waldstadion,8.645278,50.068611
http://www.wikidata.org/entity/Q19651,Yeovil Town F.C.,http://www.wikidata.org/entity/Q177206,Huish Park,-2.674881,50.950278
http://www.wikidata.org/entity/Q24360,FC Alma-Ata,http://www.wikidata.org/entity/Q190788,Almaty Central Stadium,76.92435,43.238331
http://www.wikidata.org/entity/Q48862,Aldershot Town F.C.,http://www.wikidata.org/entity/Q325809,Recreation Ground,-0.754789,51.248386
http://www.wikidata.org/entity/Q45685,CBE SA,http://www.wikidata.org/entity/Q352962,Addis Ababa Stadium,38.756417,9.013306
http://www.wikidata.org/entity/Q43477,FC Shinnik Yaroslavl,http://www.wikidata.org/entity/Q384886,Shinnik Stadium,39.867486,57.628729
http://www.wikidata.org/entity/Q43710,Antalyaspor,http://www.wikidata.org/entity/Q417007,Akdeniz University Stadium,30.64666667,36.89361111
http://www.wikidata.org/entity/Q24719,Roda JC Kerkrade,http://www.wikidata.org/entity/Q476674,Parkstad Limburg Stadion,6.005833333,50.85694444
http://www.wikidata.org/entity/Q44256,Goyang Zaicro FC,http://www.wikidata.org/entity/Q484713,Goyang Stadium,126.743056,37.676422
http://www.wikidata.org/entity/Q48925,Bristol Rovers F.C.,http://www.wikidata.org/entity/Q508121,Memorial Stadium,-2.58313,51.4862
http://www.wikidata.org/entity/Q48932,Cheltenham Town F.C.,http://www.wikidata.org/entity/Q541299,Whaddon Road,-2.060211,51.906158
http://www.wikidata.org/entity/Q31932,NK Olimpija Ljubljana,http://www.wikidata.org/entity/Q543404,Stožice Stadium,14.521389,46.081111
http://www.wikidata.org/entity/Q29115,FC Lokomotiv Moscow,http://www.wikidata.org/entity/Q595937,RZD Arena,37.741169,55.80355
http://www.wikidata.org/entity/Q19644,Walsall F.C.,http://www.wikidata.org/entity/Q609268,Bescot Stadium,-1.990706,52.565433
http://www.wikidata.org/entity/Q37091,FC Mordovia Saransk,http://www.wikidata.org/entity/Q612486,Start Stadium,45.192175,54.17583611
http://www.wikidata.org/entity/Q24317,Rakvere JK Tarvas,http://www.wikidata.org/entity/Q618514,Rakvere Linnastaadion,26.380833,59.359444
http://www.wikidata.org/entity/Q48941,Fleetwood Town F.C.,http://www.wikidata.org/entity/Q619024,Highbury Stadium,-3.024728,53.916508
http://www.wikidata.org/entity/Q19626,Shrewsbury Town F.C.,http://www.wikidata.org/entity/Q619070,New Meadow,-2.74933,52.68863
http://www.wikidata.org/entity/Q19637,Tranmere Rovers F.C.,http://www.wikidata.org/entity/Q619072,Prenton Park,-3.0325,53.373722
http://www.wikidata.org/entity/Q48935,Chesterfield F.C.,http://www.wikidata.org/entity/Q619112,Proact Stadium,-1.427203,53.253442
http://www.wikidata.org/entity/Q48929,Burton Albion F.C.,http://www.wikidata.org/entity/Q619136,Pirelli Stadium,-1.626958,52.821906
http://www.wikidata.org/entity/Q48943,Gillingham F.C.,http://www.wikidata.org/entity/Q619148,Priestfield Stadium,0.560833333,51.38416667
http://www.wikidata.org/entity/Q19615,Scunthorpe United F.C.,http://www.wikidata.org/entity/Q619256,Glanford Park,-0.69525,53.586722
http://www.wikidata.org/entity/Q47965,Torquay United F.C.,http://www.wikidata.org/entity/Q619260,Plainmoor,-3.523825,50.476408
http://www.wikidata.org/entity/Q48947,Plymouth Argyle F.C.,http://www.wikidata.org/entity/Q619350,Home Park,-4.150833333,50.38805556
http://www.wikidata.org/entity/Q48949,Rochdale A.F.C.,http://www.wikidata.org/entity/Q619466,Spotland Stadium,-2.18,53.620833
http://www.wikidata.org/entity/Q48945,Northampton Town F.C.,http://www.wikidata.org/entity/Q619615,Sixfields Stadium,-0.93345,52.235197
http://www.wikidata.org/entity/Q48843,Accrington Stanley F.C.,http://www.wikidata.org/entity/Q620815,Crown Ground,-2.370911,53.765356
http://www.wikidata.org/entity/Q31533,NK Celje,http://www.wikidata.org/entity/Q641455,Stadion Z'dežele,15.270278,46.246667
http://www.wikidata.org/entity/Q24904,ADO Den Haag,http://www.wikidata.org/entity/Q720978,WerkTalent Stadion,4.383056,52.062778
http://www.wikidata.org/entity/Q29108,FC Zenit Saint Petersburg,http://www.wikidata.org/entity/Q722970,Gazprom Arena,30.220533,59.972953
http://www.wikidata.org/entity/Q48944,Morecambe F.C.,http://www.wikidata.org/entity/Q762987,Globe Arena,-2.86716,54.0615
http://www.wikidata.org/entity/Q38568,São Paulo FC,http://www.wikidata.org/entity/Q821761,Estádio do Morumbi,-46.72015556,-23.600125
http://www.wikidata.org/entity/Q39290,NK Čelik Zenica,http://www.wikidata.org/entity/Q861838,Bilino Polje Stadium,17.907083,44.20575
http://www.wikidata.org/entity/Q28356,JEF Reserves,http://www.wikidata.org/entity/Q938966,Ichihara Seaside Stadium,140.071639,35.527974
http://www.wikidata.org/entity/Q24699,RKC Waalwijk,http://www.wikidata.org/entity/Q942073,Mandemakers Stadion,5.088611,51.686944
http://www.wikidata.org/entity/Q47533,Once Caldas,http://www.wikidata.org/entity/Q943259,Estadio Palogrande,-75.489807,5.056233
http://www.wikidata.org/entity/Q48879,Bradford City A.F.C.,http://www.wikidata.org/entity/Q969279,Valley Parade,-1.759022222,53.80422222
http://www.wikidata.org/entity/Q44305,FC Koper,http://www.wikidata.org/entity/Q970178,Bonifika Stadium,13.730453,45.542356
http://www.wikidata.org/entity/Q48938,Dagenham & Redbridge F.C.,http://www.wikidata.org/entity/Q1121922,Victoria Road,0.159867,51.5478
http://www.wikidata.org/entity/Q47182,FK Daugava (2003),http://www.wikidata.org/entity/Q1133726,Daugava Stadium,24.15886111,56.95516667
http://www.wikidata.org/entity/Q19634,Swindon Town F.C.,http://www.wikidata.org/entity/Q1137293,"County Ground, Swindon",-1.770556,51.564444
http://www.wikidata.org/entity/Q29112,Spartak Moscow,http://www.wikidata.org/entity/Q1190634,Lukoil Arena,37.4403,55.8178
http://www.wikidata.org/entity/Q32920,Marsa FC,http://www.wikidata.org/entity/Q1354010,Ta' Qali National Stadium,14.41537222,35.89486389
http://www.wikidata.org/entity/Q35933,S.C. Corinthians Paulista,http://www.wikidata.org/entity/Q1362236,Neo Química Arena,-46.474,-23.54555556
http://www.wikidata.org/entity/Q24711,FC Groningen,http://www.wikidata.org/entity/Q1374804,Euroborg,6.591388888,53.20611111
http://www.wikidata.org/entity/Q38781,FC Torpedo Kutaisi,http://www.wikidata.org/entity/Q1528840,Ramaz Shengelia Stadium,42.68308611,42.25514167
http://www.wikidata.org/entity/Q29103,FC Kuban Krasnodar,http://www.wikidata.org/entity/Q1558939,Kuban Stadium,38.99944444,45.02527778
http://www.wikidata.org/entity/Q44879,Selenge Press,http://www.wikidata.org/entity/Q1638795,MFF Football Centre,106.916111,47.9
http://www.wikidata.org/entity/Q44883,Ulaanbaataryn Mazaalaynuud,http://www.wikidata.org/entity/Q1638795,MFF Football Centre,106.916111,47.9
http://www.wikidata.org/entity/Q48946,Oxford United F.C.,http://www.wikidata.org/entity/Q1672134,Kassam Stadium,-1.208067,51.716419
http://www.wikidata.org/entity/Q24680,FC Utrecht,http://www.wikidata.org/entity/Q1675996,Stadion Galgenwaard,5.145833333,52.07833333
http://www.wikidata.org/entity/Q48948,Port Vale F.C.,http://www.wikidata.org/entity/Q1724993,Vale Park,-2.1925,53.049722
http://www.wikidata.org/entity/Q44897,Espérance Sportive de Tunis,http://www.wikidata.org/entity/Q1848770,Olympic Stadium of Radès,10.27277778,36.74777778
http://www.wikidata.org/entity/Q48939,Exeter City F.C.,http://www.wikidata.org/entity/Q1856701,St James Park,-3.52115,50.73071389
http://www.wikidata.org/entity/Q44296,FC Chornomorets Odesa,http://www.wikidata.org/entity/Q2036094,Spartak Stadium,30.748444,46.468389
http://www.wikidata.org/entity/Q24689,VVV-Venlo,http://www.wikidata.org/entity/Q2262017,De Koel,6.179722,51.351944
http://www.wikidata.org/entity/Q29400,Taranto Sport,http://www.wikidata.org/entity/Q2541428,Stadio Erasmo Iacovone,17.27,40.452778
http://www.wikidata.org/entity/Q29602,FC Dinamo-Polyot Bishkek,http://www.wikidata.org/entity/Q3042016,Dynamo Stadion,74.60083333,42.83722222
http://www.wikidata.org/entity/Q38395,FC Dordoi Bishkek,http://www.wikidata.org/entity/Q3108699,Spartak Stadium,74.59793889,42.880175
http://www.wikidata.org/entity/Q32358,Tractor F.C,http://www.wikidata.org/entity/Q3273189,Yadegar-e Emam Stadium,46.295833,38.026667
http://www.wikidata.org/entity/Q38124,FK Pelister,http://www.wikidata.org/entity/Q3405491,Stadion Tumbe Kafe,21.338889,41.018056
http://www.wikidata.org/entity/Q39183,FC Zlín,http://www.wikidata.org/entity/Q3505464,Letná Stadion,17.669425,49.231311
http://www.wikidata.org/entity/Q44307,ND Mura 05,http://www.wikidata.org/entity/Q3545094,Fazanerija City Stadium,16.1575,46.668611
http://www.wikidata.org/entity/Q26543,Brothers Somali Fc,http://www.wikidata.org/entity/Q3545656,Banadir Stadium,45.35666667,2.04194444
http://www.wikidata.org/entity/Q31821,Feralpisalò,http://www.wikidata.org/entity/Q3967826,Stadio Lino Turina,10.5128,45.6039
http://www.wikidata.org/entity/Q31821,Feralpisalò,http://www.wikidata.org/entity/Q3967826,Stadio Lino Turina,10.51308333,45.60394444
http://www.wikidata.org/entity/Q26363,FK Radnik Bijeljina,http://www.wikidata.org/entity/Q5591984,Bijeljina City Stadium,19.225,44.75444444
http://www.wikidata.org/entity/Q32444,UCAM Murcia CF,http://www.wikidata.org/entity/Q5847924,Q5847924,-1.19333,37.9217
http://www.wikidata.org/entity/Q31660,Sepahan F.C.,http://www.wikidata.org/entity/Q5931161,Naghsh-e-Jahan Stadium,51.686203,32.743267
http://www.wikidata.org/entity/Q44441,Al-Ahli Saudi FC,http://www.wikidata.org/entity/Q6411211,King Abdullah Sports City,39.165096,21.762627
http://www.wikidata.org/entity/Q44300,NK Rudar Velenje,http://www.wikidata.org/entity/Q7074533,Ob Jezeru City Stadium,15.104184,46.372931
http://www.wikidata.org/entity/Q45219,Mbabane Highlanders F.C.,http://www.wikidata.org/entity/Q7244401,Prince of Wales Stadium,-2.080556,51.910833
http://www.wikidata.org/entity/Q44128,Dakar UC,http://www.wikidata.org/entity/Q7596227,Stade de DUC Dakar,-17.458,14.7105
http://www.wikidata.org/entity/Q39877,FC Petržalka,http://www.wikidata.org/entity/Q7596480,Stadium FC Petržalka 1898,17.13333333,48.11972222
http://www.wikidata.org/entity/Q39877,FC Petržalka,http://www.wikidata.org/entity/Q7596480,Stadium FC Petržalka 1898,17.133374,48.119765
http://www.wikidata.org/entity/Q44308,NK Triglav Kranj,http://www.wikidata.org/entity/Q7599369,Stanko Mlakar Stadium,14.364914,46.251731
http://www.wikidata.org/entity/Q32537,RCD Espanyol B,http://www.wikidata.org/entity/Q8346552,Ciutat Esportiva Dani Jarque,2.213064,41.426696
http://www.wikidata.org/entity/Q31420,NK Aluminij,http://www.wikidata.org/entity/Q16632819,Kidričevo Sports Park,15.7897,46.4078
http://www.wikidata.org/entity/Q48654,Colón F.C.,http://www.wikidata.org/entity/Q27966679,Estadio Parque Doctor Carlos Suero,-56.17166667,-34.81777778
http://www.wikidata.org/entity/Q23924,Khangarid,http://www.wikidata.org/entity/Q28163470,Erdenet Stadium,104.0489,49.0265
http://www.wikidata.org/entity/Q23924,Khangarid,http://www.wikidata.org/entity/Q28163470,Erdenet Stadium,104.049,49.0265
http://www.wikidata.org/entity/Q48851,AFC Wimbledon,http://www.wikidata.org/entity/Q48699006,Plough Lane,-0.186669444,51.43136389
http://www.wikidata.org/entity/Q663400,Deportivo Cali,http://www.wikidata.org/entity/Q54793,Estadio Deportivo Cali,-76.417036,3.521642
http://www.wikidata.org/entity/Q666067,Sportfreunde Lotte,http://www.wikidata.org/entity/Q139878,Stadion am Lotter Kreuz,7.920444,52.270936
http://www.wikidata.org/entity/Q670438,SC Rheindorf Altach,http://www.wikidata.org/entity/Q267159,Stadion Schnabelholz,9.6372,47.3536
http://www.wikidata.org/entity/Q669109,FC La Chaux-de-Fonds,http://www.wikidata.org/entity/Q283171,Centre Sportif de la Charrière,6.836111,47.111389
http://www.wikidata.org/entity/Q674799,FC Biel-Bienne,http://www.wikidata.org/entity/Q385083,Gurzelen Stadion,7.26104,47.1453
http://www.wikidata.org/entity/Q677570,FK Inter Bratislava,http://www.wikidata.org/entity/Q392305,Štadión Pasienky,17.141111,48.166111
http://www.wikidata.org/entity/Q664127,FC Zlaté Moravce,http://www.wikidata.org/entity/Q392309,Štadión FC ViOn,18.403889,48.399167
http://www.wikidata.org/entity/Q670186,Deportivo Toluca F.C.,http://www.wikidata.org/entity/Q604859,Nemesio Díez Stadium,-99.666794,19.287286
http://www.wikidata.org/entity/Q665964,FSV Oggersheim,http://www.wikidata.org/entity/Q638379,Südweststadion,8.441389,49.468333
http://www.wikidata.org/entity/Q673268,FC Stade Nyonnais,http://www.wikidata.org/entity/Q663758,Centre sportif de Colovray,6.226201,46.370711
http://www.wikidata.org/entity/Q668573,FC Chiasso,http://www.wikidata.org/entity/Q663857,Stadio comunale Riva IV,9.016686,45.834089
http://www.wikidata.org/entity/Q669130,Yverdon-Sport FC,http://www.wikidata.org/entity/Q677343,Stade Municipal,6.647056,46.783297
http://www.wikidata.org/entity/Q671950,SC Kriens,http://www.wikidata.org/entity/Q681492,Stadion Kleinfeld,8.287797,47.029836
http://www.wikidata.org/entity/Q666289,FC Concordia Basel,http://www.wikidata.org/entity/Q683648,Stadion Rankhof,7.620013888,47.56119444
http://www.wikidata.org/entity/Q671368,SR Delémont,http://www.wikidata.org/entity/Q690006,La Blancherie,7.341667,47.360278
http://www.wikidata.org/entity/Q675404,Deportivo Neza,http://www.wikidata.org/entity/Q713665,Estadio Neza 86,-98.98694444,19.40583333
http://www.wikidata.org/entity/Q669543,Viljandi JK Tulevik,http://www.wikidata.org/entity/Q772839,Viljandi linnastaadion,25.607033,58.361156
http://www.wikidata.org/entity/Q663623,Constel·lació Esportiva,http://www.wikidata.org/entity/Q857795,Estadi Comunal d'Aixovall,1.487667,42.476389
http://www.wikidata.org/entity/Q669164,Nacional de Guadalajara,http://www.wikidata.org/entity/Q1346716,Jalisco Stadium,-103.328139,20.705
http://www.wikidata.org/entity/Q678039,C.F. Cobras de Querétaro,http://www.wikidata.org/entity/Q1369529,Estadio Olímpico Benito Juárez,-106.467814,31.75305
http://www.wikidata.org/entity/Q678001,Club San Francisco de Asís,http://www.wikidata.org/entity/Q1369604,Estadio Roberto Natalio Carminatti,-62.275833,-38.726944
http://www.wikidata.org/entity/Q666689,Moctezuma de Orizaba,http://www.wikidata.org/entity/Q1369632,Estadio Socum,-97.10271944,18.85712222
http://www.wikidata.org/entity/Q671042,C.D. Feirense,http://www.wikidata.org/entity/Q1370693,Estádio Marcolino de Castro,-8.545814,40.926689
http://www.wikidata.org/entity/Q666010,SC Verl,http://www.wikidata.org/entity/Q1408225,Sportclub Arena,8.51444,51.8833
http://www.wikidata.org/entity/Q666969,Arka Gdynia,http://www.wikidata.org/entity/Q1486345,Stadion Miejski,18.531214,54.493136
http://www.wikidata.org/entity/Q666024,SC Pfullendorf,http://www.wikidata.org/entity/Q1496834,Geberit-Arena,9.26191389,47.91834167
http://www.wikidata.org/entity/Q666104,VfB Speldorf,http://www.wikidata.org/entity/Q1660949,Ruhrstadion,6.831662,51.447672
http://www.wikidata.org/entity/Q666036,SC Westfalia Herne,http://www.wikidata.org/entity/Q1671027,Stadion am Schloss Strünkede,7.208611,51.551944
http://www.wikidata.org/entity/Q668112,Piast Gliwice,http://www.wikidata.org/entity/Q2017390,Stadion Piast,18.695866,50.306583
http://www.wikidata.org/entity/Q673612,SV Bad Aussee,http://www.wikidata.org/entity/Q2049748,Ausseerland-Arena,13.7808,47.6005
http://www.wikidata.org/entity/Q665907,SV Dessau 05,http://www.wikidata.org/entity/Q2058530,Paul Greifzu Stadium,12.25157,51.824
http://www.wikidata.org/entity/Q673238,FC Kharkiv,http://www.wikidata.org/entity/Q2058895,Dynamo Stadium,36.239917,50.021889
http://www.wikidata.org/entity/Q665920,VfB Lübeck,http://www.wikidata.org/entity/Q2100902,Stadion an der Lohmühle,10.668889,53.881111
http://www.wikidata.org/entity/Q666155,BFC Preussen,http://www.wikidata.org/entity/Q2109121,Preussen-Stadion an der Malteserstraße,13.3548,52.4326
http://www.wikidata.org/entity/Q666179,VfR Mannheim,http://www.wikidata.org/entity/Q2147490,Rhein-Neckar-Stadion,8.49944,49.4792
http://www.wikidata.org/entity/Q666059,Borussia Fulda,http://www.wikidata.org/entity/Q2312741,Q2312741,9.66582,50.5405
http://www.wikidata.org/entity/Q668698,FC Dornbirn 1913,http://www.wikidata.org/entity/Q2326052,Stadion Birkenwiese,9.72417,47.4164
http://www.wikidata.org/entity/Q671966,FC Grenchen,http://www.wikidata.org/entity/Q2326063,Stadion Brühl,7.404031,47.185409
http://www.wikidata.org/entity/Q665977,SpVgg Bayern Hof,http://www.wikidata.org/entity/Q2326067,Stadion Grüne Au,11.9313,50.3148
http://www.wikidata.org/entity/Q666000,FC Bayern Alzenau,http://www.wikidata.org/entity/Q2360118,Q2360118,9.0593,50.0815
http://www.wikidata.org/entity/Q676897,Nacional Potosí,http://www.wikidata.org/entity/Q2408913,Estadio Víctor Agustín Ugarte,-65.761111,-19.578611
http://www.wikidata.org/entity/Q670996,Maccabi Ironi Ashdod F.C.,http://www.wikidata.org/entity/Q2909196,Yud-Alef Stadium,34.6483,31.8103
http://www.wikidata.org/entity/Q667945,Hafia Football Club,http://www.wikidata.org/entity/Q3031607,Stade du 28 Septembre,-13.67291667,9.54586111
http://www.wikidata.org/entity/Q678169,C.F. La Piedad,http://www.wikidata.org/entity/Q3058804,Estadio Juan N. López,-102.0499,20.358061
http://www.wikidata.org/entity/Q671621,Operário Futebol Clube,http://www.wikidata.org/entity/Q3309154,Morenão,-54.609722,-20.501389
http://www.wikidata.org/entity/Q670795,CA Bastia,http://www.wikidata.org/entity/Q3495582,Q3495582,9.43554,42.66324
http://www.wikidata.org/entity/Q666827,Shirak FC,http://www.wikidata.org/entity/Q3499859,Gyumri City Stadium,43.833333,40.785833
http://www.wikidata.org/entity/Q668796,Raheny United,http://www.wikidata.org/entity/Q3865975,Morton Stadium,-6.245063,53.401179
http://www.wikidata.org/entity/Q672826,Uganda Revenue Authority SC,http://www.wikidata.org/entity/Q4118193,Mandela National Stadium,32.65888889,0.34720833
http://www.wikidata.org/entity/Q669959,Académica Petróleo Kwanda Soyo,http://www.wikidata.org/entity/Q5402037,Estádio Imbomdeiro,12.35,-6.13333
http://www.wikidata.org/entity/Q674632,Ypiranga Futebol Clube,http://www.wikidata.org/entity/Q5402140,Estádio Olímpico Colosso da Lagoa,-52.265039,-27.651011
http://www.wikidata.org/entity/Q674454,Ballinamallard United F.C.,http://www.wikidata.org/entity/Q5445082,Ferney Park,-7.59311,54.425
http://www.wikidata.org/entity/Q676088,Sportivo Italiano,http://www.wikidata.org/entity/Q5848348,República de Italia Stadium,-58.51722222,-34.73805556
http://www.wikidata.org/entity/Q666721,FC Fribourg,http://www.wikidata.org/entity/Q7596211,Stade Universitaire Saint-Léonard,7.154,46.817
http://www.wikidata.org/entity/Q670642,FC Meyrin,http://www.wikidata.org/entity/Q7596245,Stade des Arberes,6.069765138,46.23439032
http://www.wikidata.org/entity/Q674867,Moyola Park F.C.,http://www.wikidata.org/entity/Q15253406,Mill Meadow,-6.55643833,54.780155
http://www.wikidata.org/entity/Q673191,FC Rapid Ghidighici,http://www.wikidata.org/entity/Q15910037,Ghidighici Stadium,28.77154,47.08867
http://www.wikidata.org/entity/Q663605,GC Biaschesi,http://www.wikidata.org/entity/Q16604120,"Campo Sportivo ""Al Vallone""",8.9704,46.3728
http://www.wikidata.org/entity/Q672815,Medeama SC,http://www.wikidata.org/entity/Q18387343,TNA Park,-1.99240005,5.30100012
http://www.wikidata.org/entity/Q668243,SD Eibar B,http://www.wikidata.org/entity/Q21039393,Unbe Facilities,-2.46861111,43.175
http://www.wikidata.org/entity/Q678001,Club San Francisco de Asís,http://www.wikidata.org/entity/Q97506160,estadio coni,-62.06361111,-38.8775
http://www.wikidata.org/entity/Q645684,C.A. Bella Vista,http://www.wikidata.org/entity/Q48709,Estadio José Nasazzi,-56.209033,-34.861525
http://www.wikidata.org/entity/Q646596,Puebla F.C.,http://www.wikidata.org/entity/Q124769,Cuauhtémoc Stadiums,-98.164444,19.078056
http://www.wikidata.org/entity/Q657729,Bobo Sport,http://www.wikidata.org/entity/Q174463,Stade Wobi Bobo-Dioulasso,-4.29694444,11.18194444
http://www.wikidata.org/entity/Q653119,Almere City FC,http://www.wikidata.org/entity/Q255387,Yanmar Stadion,5.240556,52.394444
http://www.wikidata.org/entity/Q650869,Condal Club,http://www.wikidata.org/entity/Q259654,Estadio Alejandro Ortea,-5.704167,43.391944
http://www.wikidata.org/entity/Q659212,FC St. Gallen,http://www.wikidata.org/entity/Q292010,kybunpark,9.306389,47.408333
http://www.wikidata.org/entity/Q655059,Schwarz-Weiß Essen,http://www.wikidata.org/entity/Q327459,Uhlenkrugstadion,7.01825,51.4266
http://www.wikidata.org/entity/Q659780,Grazer AK,http://www.wikidata.org/entity/Q696491,Merkur Arena,15.454444,47.046111
http://www.wikidata.org/entity/Q645160,Taiwan Power Company F.C.,http://www.wikidata.org/entity/Q713442,National Stadium,120.295,22.702778
http://www.wikidata.org/entity/Q643278,FC Sioni Bolnisi,http://www.wikidata.org/entity/Q750051,Tamaz Stephania Stadium,44.535185,41.447996
http://www.wikidata.org/entity/Q647795,UE Santa Coloma,http://www.wikidata.org/entity/Q857795,Estadi Comunal d'Aixovall,1.487667,42.476389
http://www.wikidata.org/entity/Q647893,SV Eintracht Trier 05,http://www.wikidata.org/entity/Q883806,Moselstadion,6.647778,49.768056
http://www.wikidata.org/entity/Q654510,Notwane F.C.,http://www.wikidata.org/entity/Q894862,Botswana National Stadium,25.932892,-24.6568
http://www.wikidata.org/entity/Q660003,NA Hussein Dey,http://www.wikidata.org/entity/Q940074,Stade Frères Zioui,3.091944,36.743889
http://www.wikidata.org/entity/Q663266,FC Aris Bonnevoie,http://www.wikidata.org/entity/Q945298,Stade Josy Barthel,6.109661111,49.61563056
http://www.wikidata.org/entity/Q646079,Beerschot A.C.,http://www.wikidata.org/entity/Q1057087,Olympisch Stadion Antwerp,4.382222,51.185
http://www.wikidata.org/entity/Q644386,Druk Star F.C.,http://www.wikidata.org/entity/Q1062074,Changlimithang Stadium,89.641056,27.471417
http://www.wikidata.org/entity/Q646204,JEF United Chiba,http://www.wikidata.org/entity/Q1137281,Fukuda Denshi Arena,140.122912,35.577545
http://www.wikidata.org/entity/Q648382,SC Veendam,http://www.wikidata.org/entity/Q1140546,De Langeleegte,6.864444,53.108611
http://www.wikidata.org/entity/Q643107,Denizlispor,http://www.wikidata.org/entity/Q1187869,Denizli Atatürk Stadium,29.0823,37.7659
http://www.wikidata.org/entity/Q654486,Pacy Ménilles RC,http://www.wikidata.org/entity/Q1303353,Stade Pacy-Ménilles,1.37002,49.02806
http://www.wikidata.org/entity/Q655077,Q655077,http://www.wikidata.org/entity/Q1369079,Estadio Atilio Paiva Olivera,-55.548333,-30.908333
http://www.wikidata.org/entity/Q657865,CD Logroñés,http://www.wikidata.org/entity/Q1369314,Estadio Las Gaunas,-2.453333,42.453333
http://www.wikidata.org/entity/Q644157,Kalmar FF,http://www.wikidata.org/entity/Q1421187,Guldfågeln Arena,16.31523333,56.69070278
http://www.wikidata.org/entity/Q643042,FC Dila Gori,http://www.wikidata.org/entity/Q1519723,Tengiz Burjanadze Stadium,44.103828,41.983019
http://www.wikidata.org/entity/Q655027,Ariana Kabul F.C.,http://www.wikidata.org/entity/Q1521498,Ghazi Stadium,69.19388889,34.51861111
http://www.wikidata.org/entity/Q661661,CSC Cayenne,http://www.wikidata.org/entity/Q1560739,Stade de Baduel,-52.31175,4.93358
http://www.wikidata.org/entity/Q652516,Benevento Calcio,http://www.wikidata.org/entity/Q1671970,Stadio Ciro Vigorito,14.781111,41.116389
http://www.wikidata.org/entity/Q643434,PFC Slavia Sofia,http://www.wikidata.org/entity/Q1859824,Ovcha Kupel Stadium,23.272028,42.675361
http://www.wikidata.org/entity/Q660154,Colegio Nacional Iquitos,http://www.wikidata.org/entity/Q2190996,Estadio Max Augustín,-73.252778,-3.743611
http://www.wikidata.org/entity/Q643083,FC Volga Nizhny Novgorod,http://www.wikidata.org/entity/Q2503505,Lokomotiv Stadium,43.930403,56.309435
http://www.wikidata.org/entity/Q658131,Alki Larnaca F.C.,http://www.wikidata.org/entity/Q2760479,GSZ Stadium,33.599722,34.925556
http://www.wikidata.org/entity/Q643914,Derry Celtic F.C.,http://www.wikidata.org/entity/Q3312170,Celtic Park,-7.333611,54.993333
http://www.wikidata.org/entity/Q650797,Orihuela Deportiva CF,http://www.wikidata.org/entity/Q3323873,Estadio Municipal Los Arcos,-0.95,38.08333333
http://www.wikidata.org/entity/Q646281,Algeciras CF,http://www.wikidata.org/entity/Q3390591,Estadio Nuevo Mirador,-5.46527778,36.16333333
http://www.wikidata.org/entity/Q651198,FK BSK Borča,http://www.wikidata.org/entity/Q3440735,Vizelj park,20.444283,44.876358
http://www.wikidata.org/entity/Q650917,R.E. Virton,http://www.wikidata.org/entity/Q3495908,Stade Yvan Georges,5.53059,49.5625
http://www.wikidata.org/entity/Q654407,FC Spartak Plovdiv,http://www.wikidata.org/entity/Q3658465,Todor Diev Stadium,24.743611,42.131667
http://www.wikidata.org/entity/Q659110,Cork Hibernians F.C.,http://www.wikidata.org/entity/Q3778340,Páirc Uí Rinn,-8.436749,51.891378
http://www.wikidata.org/entity/Q655036,U.S. Viterbese 1908,http://www.wikidata.org/entity/Q3967780,Stadio Enrico Rocchi,12.10052778,42.42347222
http://www.wikidata.org/entity/Q651966,Stomil Olsztyn,http://www.wikidata.org/entity/Q3967963,OSiR Stadium in Olsztyn,20.508056,53.772778
http://www.wikidata.org/entity/Q649931,Al-Jeel,http://www.wikidata.org/entity/Q4116944,Prince Abdullah bin Jalawi Sports City,49.612778,25.305833
http://www.wikidata.org/entity/Q647556,Al-Najma,http://www.wikidata.org/entity/Q4703016,Al-Najma Club Stadium,44.048056,26.095278
http://www.wikidata.org/entity/Q661543,Droylsden F.C.,http://www.wikidata.org/entity/Q5002442,Butcher's Arms Ground,-2.1449,53.481858
http://www.wikidata.org/entity/Q652008,Novelda CF,http://www.wikidata.org/entity/Q5054416,Q5054416,-0.756168,38.3867
http://www.wikidata.org/entity/Q656134,Albion Rovers F.C.,http://www.wikidata.org/entity/Q5133356,Cliftonhill,-4.01139,55.8603
http://www.wikidata.org/entity/Q655749,UD Vecindario,http://www.wikidata.org/entity/Q5262457,Estadio Municipal de Vecindario,-15.44813889,27.84810833
http://www.wikidata.org/entity/Q663263,Sinop Futebol Clube,http://www.wikidata.org/entity/Q5402102,Estádio Municipal Gigante do Norte,-55.49944444,-11.87138889
http://www.wikidata.org/entity/Q660764,Clube Atlético Juventus,http://www.wikidata.org/entity/Q5402163,Estádio Rua Javari,-46.604444,-23.553333
http://www.wikidata.org/entity/Q661383,CF Lorca Deportiva,http://www.wikidata.org/entity/Q5805617,Q5805617,-1.70361,37.66692
http://www.wikidata.org/entity/Q659324,SC Villa,http://www.wikidata.org/entity/Q6960652,Nakivubo Stadium,32.573541,0.311629
http://www.wikidata.org/entity/Q646342,Khanh Hoa F.C.,http://www.wikidata.org/entity/Q7023325,Nha Trang Stadium,109.192944,12.250427
http://www.wikidata.org/entity/Q659906,Missile FC,http://www.wikidata.org/entity/Q7596089,Stade Augustin Monédan de Sibang,9.4672676,0.4161976
http://www.wikidata.org/entity/Q657651,USCO Banfora,http://www.wikidata.org/entity/Q7596091,Stade Banfora,-4.745833,10.651944
http://www.wikidata.org/entity/Q662388,Diables Noirs,http://www.wikidata.org/entity/Q7596137,Stade Marchand,15.2533,-4.27917
http://www.wikidata.org/entity/Q660442,FC Arieșul Turda,http://www.wikidata.org/entity/Q7596433,Stadionul Municipal,23.823611,46.563056
http://www.wikidata.org/entity/Q645025,CS Snagov,http://www.wikidata.org/entity/Q7596450,Stadionul Snagov,26.173611,44.735
http://www.wikidata.org/entity/Q659459,ALO's Hokuriku,http://www.wikidata.org/entity/Q7830567,Toyama Athletic Stadium,137.195688,36.625056
http://www.wikidata.org/entity/Q652528,Sobradinho Esporte Clube,http://www.wikidata.org/entity/Q10276812,Q10276812,-47.78527778,-15.6525
http://www.wikidata.org/entity/Q645229,Sandnes Ulf,http://www.wikidata.org/entity/Q11999443,Sandnes stadion,5.725833333,58.85944444
http://www.wikidata.org/entity/Q649944,Hetten FC,http://www.wikidata.org/entity/Q16123664,King Faisal Sport City,42.5964,16.84
http://www.wikidata.org/entity/Q657160,SD Tenisca,http://www.wikidata.org/entity/Q16564739,Q16564739,-17.76239722,28.70727222
http://www.wikidata.org/entity/Q643338,Cobreloa,http://www.wikidata.org/entity/Q21044371,Estadio Zorros del Desierto,-68.92055556,-22.46027778
http://www.wikidata.org/entity/Q656134,Albion Rovers F.C.,http://www.wikidata.org/entity/Q22097699,"Meadow Park, Coatbridge",-4.0142,55.8518
http://www.wikidata.org/entity/Q648263,SM Sanga Balende,http://www.wikidata.org/entity/Q25055638,Stade Kashala Bonzola,27.489241,-11.678373
http://www.wikidata.org/entity/Q647948,Gyirmót FC Győr,http://www.wikidata.org/entity/Q25460410,Ménfői úti Stadion,17.5926924,47.6328867
http://www.wikidata.org/entity/Q649421,The White Rovers,http://www.wikidata.org/entity/Q27777747,Terrain de Bécon,2.26935,48.90476
http://www.wikidata.org/entity/Q659924,FC Olt Scornicești,http://www.wikidata.org/entity/Q28195235,Stadionul Viitorul,24.5516649,44.5926079
http://www.wikidata.org/entity/Q385518,SK Sigma Olomouc,http://www.wikidata.org/entity/Q154405,Andrův stadion,17.248333,49.6
http://www.wikidata.org/entity/Q375782,Platinum Stars F.C.,http://www.wikidata.org/entity/Q189337,Royal Bafokeng Stadium,27.16083333,-25.57861111
http://www.wikidata.org/entity/Q383196,FC Kärnten,http://www.wikidata.org/entity/Q216167,Wörthersee Stadion,14.278281,46.608847
http://www.wikidata.org/entity/Q369420,Havnar Bóltfelag,http://www.wikidata.org/entity/Q221052,Gundadalur,-6.7811394,62.0193487
http://www.wikidata.org/entity/Q368117,Kotkan Työväen Palloilijat,http://www.wikidata.org/entity/Q269541,Arto Tolsa Areena,26.939722,60.4575
http://www.wikidata.org/entity/Q385971,Melbourne Hakoah,http://www.wikidata.org/entity/Q279966,Middle Park,144.971337,-37.852899
http://www.wikidata.org/entity/Q374254,PFC Beroe Stara Zagora,http://www.wikidata.org/entity/Q303387,Beroe Stadium,25.615278,42.432778
http://www.wikidata.org/entity/Q343030,Ħamrun Spartans F.C.,http://www.wikidata.org/entity/Q312415,Victor Tedesco Stadium,14.4925,35.8873
http://www.wikidata.org/entity/Q339560,Accra Hearts of Oak SC,http://www.wikidata.org/entity/Q339568,Accra Sports Stadium,-0.191944444,5.551388888
http://www.wikidata.org/entity/Q339560,Accra Hearts of Oak SC,http://www.wikidata.org/entity/Q339568,Accra Sports Stadium,-0.19184,5.5516
http://www.wikidata.org/entity/Q388487,Şanlıurfaspor,http://www.wikidata.org/entity/Q388470,Şanlıurfa 11 Nisan Stadium,38.8068,37.1478
http://www.wikidata.org/entity/Q375697,Sociedade Esportiva do Gama,http://www.wikidata.org/entity/Q388816,Bezerrão,-48.062222,-16.0125
http://www.wikidata.org/entity/Q385177,MOIK Baku,http://www.wikidata.org/entity/Q390733,ASK Arena,49.897711,40.410986
http://www.wikidata.org/entity/Q385074,Oita Trinita,http://www.wikidata.org/entity/Q482581,Ōita Stadium,131.6575,33.200556
http://www.wikidata.org/entity/Q383358,Albirex Niigata,http://www.wikidata.org/entity/Q494749,Denka Big Swan Stadium,139.0591667,37.8825
http://www.wikidata.org/entity/Q386241,FC Amsterdam,http://www.wikidata.org/entity/Q503319,Olympic Stadium in Amsterdam,4.854192,52.343419
http://www.wikidata.org/entity/Q382324,Kuopion Palloseura,http://www.wikidata.org/entity/Q545321,Kuopio Football Stadium,27.670833,62.884444
http://www.wikidata.org/entity/Q340133,Hacettepe S.K.,http://www.wikidata.org/entity/Q556417,Ankara 19 Mayıs Stadium,32.845681,39.940094
http://www.wikidata.org/entity/Q388405,CD Travadores,http://www.wikidata.org/entity/Q569437,Estádio da Várzea,-23.512222,14.916111
http://www.wikidata.org/entity/Q378890,Ermis Aradippou FC,http://www.wikidata.org/entity/Q582868,Ammochostos Stadium,33.613207,34.929818
http://www.wikidata.org/entity/Q372599,Sivasspor,http://www.wikidata.org/entity/Q597945,Sivas 4 Eylül Stadium,36.984065,39.728612
http://www.wikidata.org/entity/Q368675,FC Locarno,http://www.wikidata.org/entity/Q663896,Stadio del Lido,8.801544,46.162687
http://www.wikidata.org/entity/Q345142,ŁKS Łódź,http://www.wikidata.org/entity/Q777501,Stadion ŁKS,19.42675,51.75875
http://www.wikidata.org/entity/Q338557,Dundalk F.C.,http://www.wikidata.org/entity/Q782088,Oriel Park,-6.416917,53.998944
http://www.wikidata.org/entity/Q389879,Esbjerg fB,http://www.wikidata.org/entity/Q885933,Blue Water Arena,8.439444,55.481944
http://www.wikidata.org/entity/Q338285,América Futebol Clube,http://www.wikidata.org/entity/Q909851,Estádio Independência,-43.917778,-19.908333
http://www.wikidata.org/entity/Q354059,Adelaide United Football Club,http://www.wikidata.org/entity/Q927462,Hindmarsh Stadium,138.568889,-34.9075
http://www.wikidata.org/entity/Q375734,Olimpia Grudziądz,http://www.wikidata.org/entity/Q974444,City Stadium Grudziądz,18.75944444,53.48805556
http://www.wikidata.org/entity/Q364698,Cercle Brugge K.S.V.,http://www.wikidata.org/entity/Q1070150,Jan Breydel Stadium,3.181311,51.193269
http://www.wikidata.org/entity/Q382418,FK Zeta,http://www.wikidata.org/entity/Q1070494,Stadion Trešnjica,19.240556,42.328611
http://www.wikidata.org/entity/Q339596,Giulianova Calcio,http://www.wikidata.org/entity/Q1131480,Stadio Rubens Fadini,13.954722,42.749167
http://www.wikidata.org/entity/Q337049,FC Daugava,http://www.wikidata.org/entity/Q1133726,Daugava Stadium,24.15886111,56.95516667
http://www.wikidata.org/entity/Q369955,Budapesti TC,http://www.wikidata.org/entity/Q1177284,Millenáris Sporttelep,19.094722,47.506111
http://www.wikidata.org/entity/Q385496,RB Omiya Ardija,http://www.wikidata.org/entity/Q1189715,NACK5 Stadium Omiya,139.633377,35.916303
http://www.wikidata.org/entity/Q390256,Dunfermline Athletic F.C.,http://www.wikidata.org/entity/Q1277834,East End Park,-3.441906,56.075308
http://www.wikidata.org/entity/Q348902,Balzan F.C.,http://www.wikidata.org/entity/Q1354010,Ta' Qali National Stadium,14.41537222,35.89486389
http://www.wikidata.org/entity/Q371136,F.C. Paços de Ferreira,http://www.wikidata.org/entity/Q1370763,Estádio Capital do Móvel,-8.385581,41.271353
http://www.wikidata.org/entity/Q374069,Avaí Futebol Clube,http://www.wikidata.org/entity/Q1370775,Estádio da Ressacada,-48.531667,-27.666389
http://www.wikidata.org/entity/Q378140,USM Annaba,http://www.wikidata.org/entity/Q1395123,"May 19, 1956 Stadium",7.733056,36.885833
http://www.wikidata.org/entity/Q388293,RC Rivière-Pilote,http://www.wikidata.org/entity/Q1424970,Stade En Camée,-60.909167,14.483889
http://www.wikidata.org/entity/Q384466,African Stars F.C.,http://www.wikidata.org/entity/Q1455247,Sam Nujoma Stadium,17.090975,-22.60763611
http://www.wikidata.org/entity/Q352251,Adana Demirspor,http://www.wikidata.org/entity/Q1467574,Adana 5 Ocak Stadium,35.3297,36.999
http://www.wikidata.org/entity/Q352270,Adanaspor,http://www.wikidata.org/entity/Q1467574,Adana 5 Ocak Stadium,35.3297,36.999
http://www.wikidata.org/entity/Q391353,Real Salt Lake,http://www.wikidata.org/entity/Q1514798,America First Field,-111.893,40.5829
http://www.wikidata.org/entity/Q377621,Gloria Bistrița,http://www.wikidata.org/entity/Q1532041,Stadionul Gloria,24.502778,47.130833
http://www.wikidata.org/entity/Q339974,S.V. Victory Boys,http://www.wikidata.org/entity/Q1637216,Ergilio Hato Stadium,-68.88754722,12.15274444
http://www.wikidata.org/entity/Q388414,CVV Willemstad,http://www.wikidata.org/entity/Q1637216,Ergilio Hato Stadium,-68.88754722,12.15274444
http://www.wikidata.org/entity/Q384850,NK Domžale,http://www.wikidata.org/entity/Q1711712,Domžale Sports Park,14.602343,46.136967
http://www.wikidata.org/entity/Q376635,S.V. Zulte Waregem,http://www.wikidata.org/entity/Q1850335,Regenboogstadion,3.428889,50.883056
http://www.wikidata.org/entity/Q383943,Africa Sports d'Abidjan,http://www.wikidata.org/entity/Q1999706,Felix Houphouet Boigny Stadium,-4.018417,5.32825
http://www.wikidata.org/entity/Q370712,Excelsior Rotterdam,http://www.wikidata.org/entity/Q2298643,Stadion Woudestein,4.520556,51.916944
http://www.wikidata.org/entity/Q379096,SpVgg Weiden,http://www.wikidata.org/entity/Q2326124,Q2326124,12.1695,49.6843
http://www.wikidata.org/entity/Q368104,FCV Farul Constanța,http://www.wikidata.org/entity/Q2437251,Stadionul Farul,28.639333,44.197278
http://www.wikidata.org/entity/Q391099,FC Lokomotiv Nizhny Novgorod,http://www.wikidata.org/entity/Q2503505,Lokomotiv Stadium,43.930403,56.309435
http://www.wikidata.org/entity/Q391112,FC Spartak Nizhny Novgorod,http://www.wikidata.org/entity/Q2503505,Lokomotiv Stadium,43.930403,56.309435
http://www.wikidata.org/entity/Q348659,FC Luch-Energiya Vladivostok,http://www.wikidata.org/entity/Q2526213,Dynamo Stadium,131.8788,43.1192
http://www.wikidata.org/entity/Q388401,Hakoah Amidar Ramat Gan F.C.,http://www.wikidata.org/entity/Q2584919,Winter Stadium,34.815478,32.0453
http://www.wikidata.org/entity/Q388972,FC Metalurh Donetsk,http://www.wikidata.org/entity/Q2659939,Metalurh Stadium,37.798139,47.973222
http://www.wikidata.org/entity/Q388625,Club Deportivo Quevedo,http://www.wikidata.org/entity/Q3277328,Estadio 7 de Octubre,-79.467863,-1.035628
http://www.wikidata.org/entity/Q390183,The New Saints F.C.,http://www.wikidata.org/entity/Q3365405,Park Hall,-3.02631,52.8759
http://www.wikidata.org/entity/Q368909,NK Slaven Belupo,http://www.wikidata.org/entity/Q3442471,Gradski stadion,16.834722,46.166111
http://www.wikidata.org/entity/Q375341,Canto do Rio Foot-Ball Club,http://www.wikidata.org/entity/Q3495544,Estádio Caio Martins,-43.10583333,-22.90055556
http://www.wikidata.org/entity/Q369349,US Orléans,http://www.wikidata.org/entity/Q3496035,Stade de la Source,1.94169,47.84069
http://www.wikidata.org/entity/Q337485,Academie de Foot Amadou Diallo,http://www.wikidata.org/entity/Q3496147,Stade Municipal d'Abidjan,-4.018889,5.341944
http://www.wikidata.org/entity/Q387224,F.C. Fiorentino,http://www.wikidata.org/entity/Q3654715,Campo Sportivo di Fiorentino,12.447944,43.908667
http://www.wikidata.org/entity/Q373419,A.S.D. Olimpia Colligiana,http://www.wikidata.org/entity/Q3967802,Stadio Gino Manni,11.14027778,43.42194444
http://www.wikidata.org/entity/Q368500,Bath City F.C.,http://www.wikidata.org/entity/Q4001038,Twerton Park,-2.3951,51.3787
http://www.wikidata.org/entity/Q341892,Nam Dinh F.C.,http://www.wikidata.org/entity/Q4115591,Thien Truong Stadium,106.18,20.4358
http://www.wikidata.org/entity/Q338649,Annajma S.C.,http://www.wikidata.org/entity/Q4118962,Martyrs of February Stadium,20.266667,32.083333
http://www.wikidata.org/entity/Q391107,FC Zvezda Irkutsk,http://www.wikidata.org/entity/Q4265831,Q4265831,104.249,52.2889
http://www.wikidata.org/entity/Q391107,FC Zvezda Irkutsk,http://www.wikidata.org/entity/Q4464289,Trud Stadium,104.282,52.2764
http://www.wikidata.org/entity/Q378797,Aduana Stars,http://www.wikidata.org/entity/Q4694729,Agyeman Badu Stadium,-2.86536111,7.26522222
http://www.wikidata.org/entity/Q378368,Ajman Club,http://www.wikidata.org/entity/Q4699899,Ajman Stadium,55.450546,25.392215
http://www.wikidata.org/entity/Q344328,İstanbulspor A.Ş.,http://www.wikidata.org/entity/Q4843094,Bahçelievler Stadium,28.83211944,40.99656667
http://www.wikidata.org/entity/Q389669,Nepean Stars F.C.,http://www.wikidata.org/entity/Q4931173,Bo Stadium,-11.74,7.96
http://www.wikidata.org/entity/Q376118,Fisher Athletic F.C.,http://www.wikidata.org/entity/Q5069998,Champion Hill,-0.084061,51.461231
http://www.wikidata.org/entity/Q386918,Canterbury United,http://www.wikidata.org/entity/Q5378343,English Park,172.636,-43.5092
http://www.wikidata.org/entity/Q389712,Gimnástica de Torrelavega,http://www.wikidata.org/entity/Q5400181,Estadio El Malecón,-4.06389,43.3506
http://www.wikidata.org/entity/Q391600,Boyacá Patriotas,http://www.wikidata.org/entity/Q5400324,Estadio La Independencia,-73.353131,5.542233
http://www.wikidata.org/entity/Q338923,Deportes Copiapó,http://www.wikidata.org/entity/Q5400341,Estadio Luis Valenzuela Hermosilla,-70.320833,-27.376667
http://www.wikidata.org/entity/Q376938,HNŠK Moslavina,http://www.wikidata.org/entity/Q5591986,Gradski stadion,16.7825,45.487778
http://www.wikidata.org/entity/Q377494,FK Mogren,http://www.wikidata.org/entity/Q5860022,Stadion Lugovi,18.8507,42.2863
http://www.wikidata.org/entity/Q342558,Đồng Tâm Long An F.C.,http://www.wikidata.org/entity/Q5930497,Long An Stadium,106.408333,10.536111
http://www.wikidata.org/entity/Q344068,İskenderun Demir Çelikspor,http://www.wikidata.org/entity/Q6056478,İskenderun 5 Temmuz Stadium,36.1553,36.5851
http://www.wikidata.org/entity/Q384230,SK Trane,http://www.wikidata.org/entity/Q6438785,Krohnsminde,5.341497,60.375694
http://www.wikidata.org/entity/Q386670,Marsaxlokk F.C.,http://www.wikidata.org/entity/Q6773214,Marsaxlokk Ground,14.544722,35.841667
http://www.wikidata.org/entity/Q388746,FC Fredericia,http://www.wikidata.org/entity/Q6900548,Fredericia New Stadium,9.7286,55.57825
http://www.wikidata.org/entity/Q374632,Sfax Railways Sports,http://www.wikidata.org/entity/Q7596086,Stade Ameur El-Gargouri,10.18518,36.83974
http://www.wikidata.org/entity/Q389996,SC Steinfort,http://www.wikidata.org/entity/Q7596102,Stade Demy Steichen,5.91766,49.6647
http://www.wikidata.org/entity/Q389629,Afyonkarahisarspor,http://www.wikidata.org/entity/Q17507999,Afyonkarahisar Stadi,30.47972222,38.79166667
http://www.wikidata.org/entity/Q390830,FK ŠKP Inter Dúbravka Bratislava,http://www.wikidata.org/entity/Q17511110,Stadium ŠKP Inter Dúbravka,17.0497,48.1758
http://www.wikidata.org/entity/Q353970,Adelaide City Football Club,http://www.wikidata.org/entity/Q17985405,Adelaide City Park,138.636493,-34.851743
http://www.wikidata.org/entity/Q385042,FC Honka,http://www.wikidata.org/entity/Q28004628,Tapiola Sports Park,24.78111111,60.17777778
http://www.wikidata.org/entity/Q383787,OFK Grbalj,http://www.wikidata.org/entity/Q28224942,Stadion Donja Sutvara,18.75611111,42.36472222
http://www.wikidata.org/entity/Q376893,FC Viktoryja Marjina Horka,http://www.wikidata.org/entity/Q31213453,Haradski Stadium (Marjina Horka),28.15083333,53.5175
http://www.wikidata.org/entity/Q367788,Aris Limassol F.C.,http://www.wikidata.org/entity/Q60417957,Limassol Arena,32.939278,34.693194
http://www.wikidata.org/entity/Q389900,Santutxu FC,http://www.wikidata.org/entity/Q105075682,Q105075682,-2.919916666,43.26091667
http://www.wikidata.org/entity/Q151747,Fortuna Düsseldorf,http://www.wikidata.org/entity/Q155351,Merkur Spiel-Arena,6.733083,51.261539
http://www.wikidata.org/entity/Q141931,Dynamo Dresden,http://www.wikidata.org/entity/Q170154,Rudolf-Harbig-Stadion,13.747778,51.040278
http://www.wikidata.org/entity/Q132885,Olympique de Marseille,http://www.wikidata.org/entity/Q202150,Stade Vélodrome,5.394907,43.269241
http://www.wikidata.org/entity/Q131603,TSV 1860 München,http://www.wikidata.org/entity/Q254903,Grünwalder Stadion,11.574444,48.110833
http://www.wikidata.org/entity/Q160530,VfL Osnabrück,http://www.wikidata.org/entity/Q265199,Stadion an der Bremer Brücke,8.071111,52.280833
http://www.wikidata.org/entity/Q141688,Anorthosis Famagusta FC,http://www.wikidata.org/entity/Q268077,Antonis Papadopoulos Stadium,33.620922,34.937422
http://www.wikidata.org/entity/Q154026,FC KTP,http://www.wikidata.org/entity/Q269541,Arto Tolsa Areena,26.939722,60.4575
http://www.wikidata.org/entity/Q128446,FC Porto,http://www.wikidata.org/entity/Q271454,Estádio do Dragão,-8.583933,41.161758
http://www.wikidata.org/entity/Q161554,Chemnitzer FC,http://www.wikidata.org/entity/Q314582,Stadion an der Gellertstraße,12.945669,50.842186
http://www.wikidata.org/entity/Q157020,Rot-Weiß Oberhausen,http://www.wikidata.org/entity/Q316679,Niederrheinstadion,6.854444,51.493611
http://www.wikidata.org/entity/Q162317,1. FC Lokomotive Leipzig,http://www.wikidata.org/entity/Q317289,Bruno-Plache-Stadion,12.4192,51.3029
http://www.wikidata.org/entity/Q161074,FC Sachsen Leipzig,http://www.wikidata.org/entity/Q318721,Alfred-Kunze-Sportpark,12.307778,51.358056
http://www.wikidata.org/entity/Q157352,FSV Frankfurt,http://www.wikidata.org/entity/Q319774,Stadion am Bornheimer Hang,8.723333,50.128056
http://www.wikidata.org/entity/Q134241,Feyenoord Rotterdam,http://www.wikidata.org/entity/Q330298,De Kuip,4.523252777,51.89389444
http://www.wikidata.org/entity/Q144190,PFC Levski Sofia,http://www.wikidata.org/entity/Q368232,Georgi Asparuhov Stadium,23.363197,42.705467
http://www.wikidata.org/entity/Q126334,RC Strasbourg Alsace,http://www.wikidata.org/entity/Q374883,Stade de la Meinau,7.75738,48.55942
http://www.wikidata.org/entity/Q141882,FC Erzgebirge Aue,http://www.wikidata.org/entity/Q385549,Erzgebirgsstadion,12.711111,50.5975
http://www.wikidata.org/entity/Q162408,1. FC Tatran Prešov,http://www.wikidata.org/entity/Q392308,Štadión 1. FC Tatran Prešov,21.234444,49.006667
http://www.wikidata.org/entity/Q155730,1. FC Magdeburg,http://www.wikidata.org/entity/Q473032,Avnet Arena,11.670833,52.125556
http://www.wikidata.org/entity/Q129673,Ulsan HD FC,http://www.wikidata.org/entity/Q482601,Ulsan Munsu Football Stadium,129.2594444,35.53527778
http://www.wikidata.org/entity/Q157464,KFC Uerdingen 05,http://www.wikidata.org/entity/Q512500,Grotenburg-Stadion,6.603611,51.339167
http://www.wikidata.org/entity/Q138248,Sint-Truidense V.V.,http://www.wikidata.org/entity/Q515782,Stayen,5.165278,50.813611
http://www.wikidata.org/entity/Q155186,FC Carl Zeiss Jena,http://www.wikidata.org/entity/Q547985,Ernst-Abbe-Sportfeld,11.582778,50.915833
http://www.wikidata.org/entity/Q158121,SpVgg Unterhaching,http://www.wikidata.org/entity/Q548113,Generali Sportpark,11.615556,48.073611
http://www.wikidata.org/entity/Q162251,1. FC Heidenheim 1846,http://www.wikidata.org/entity/Q548138,Voith-Arena,10.1393,48.6685
http://www.wikidata.org/entity/Q159930,BFC Dynamo,http://www.wikidata.org/entity/Q551837,Sportforum Hohenschönhausen,13.4764,52.54
http://www.wikidata.org/entity/Q160532,SC Paderborn 07,http://www.wikidata.org/entity/Q567402,Home Deluxe Arena,8.710833,51.731389
http://www.wikidata.org/entity/Q134255,Górnik Zabrze,http://www.wikidata.org/entity/Q606059,Ernest Pohl Stadium,18.768564,50.296317
http://www.wikidata.org/entity/Q128897,FK Borac Banja Luka,http://www.wikidata.org/entity/Q621027,Gradski stadion,17.1996,44.7761
http://www.wikidata.org/entity/Q159930,BFC Dynamo,http://www.wikidata.org/entity/Q656063,Friedrich-Ludwig-Jahn-Sportpark,13.405278,52.543056
http://www.wikidata.org/entity/Q154053,Eintracht Braunschweig,http://www.wikidata.org/entity/Q662597,Eintracht-Stadion,10.521389,52.29
http://www.wikidata.org/entity/Q153539,SpVgg Greuther Fürth,http://www.wikidata.org/entity/Q684301,Trolli Arena,10.999167,49.486944
http://www.wikidata.org/entity/Q154293,MSV Duisburg,http://www.wikidata.org/entity/Q685570,Schauinsland-Reisen-Arena,6.778639,51.409028
http://www.wikidata.org/entity/Q131209,FK Austria Wien,http://www.wikidata.org/entity/Q696476,Generali Arena,16.386694,48.162306
http://www.wikidata.org/entity/Q153535,Alemannia Aachen,http://www.wikidata.org/entity/Q699927,New Tivoli,6.097222222,50.79333333
http://www.wikidata.org/entity/Q142005,F.C. Hansa Rostock,http://www.wikidata.org/entity/Q700314,Ostseestadion,12.09518889,54.08495
http://www.wikidata.org/entity/Q157463,1. FC Saarbrücken,http://www.wikidata.org/entity/Q703651,Ludwigsparkstadion,6.984167,49.2475
http://www.wikidata.org/entity/Q128045,Club Universitario,http://www.wikidata.org/entity/Q747644,Estadio Olímpico Patria,-65.257912,-19.032322
http://www.wikidata.org/entity/Q141971,1. FC Union Berlin,http://www.wikidata.org/entity/Q749172,Stadion An der Alten Försterei,13.568056,52.457222
http://www.wikidata.org/entity/Q126301,Al-Salmiya SC,http://www.wikidata.org/entity/Q784379,Thamir Stadium,48.08833333,29.34083333
http://www.wikidata.org/entity/Q136433,PFC CSKA Sofia,http://www.wikidata.org/entity/Q804933,Balgarska Armia Stadium,23.339769,42.684258
http://www.wikidata.org/entity/Q159936,Kickers Offenbach,http://www.wikidata.org/entity/Q820791,Sparda Bank Hessen Stadium,8.798611,50.094444
http://www.wikidata.org/entity/Q141045,Kitchee SC,http://www.wikidata.org/entity/Q838937,Mong Kok Stadium,114.173,22.3261
http://www.wikidata.org/entity/Q155105,FC Merani Tbilisi,http://www.wikidata.org/entity/Q839989,Sinatle Stadium,44.859751,41.674824
http://www.wikidata.org/entity/Q157828,Holstein Kiel,http://www.wikidata.org/entity/Q872915,Holstein-Stadion,10.123611,54.349167
http://www.wikidata.org/entity/Q134073,SC Wiener Neustadt,http://www.wikidata.org/entity/Q874622,Stadion Wiener Neustadt,16.255278,47.822778
http://www.wikidata.org/entity/Q136089,ZFC Meuselwitz,http://www.wikidata.org/entity/Q885979,Bluechip-Arena,12.2831,51.0536
http://www.wikidata.org/entity/Q130521,Guangzhou F.C.,http://www.wikidata.org/entity/Q929126,Tianhe Stadium,113.31934,23.14052
http://www.wikidata.org/entity/Q148594,Deltras F.C.,http://www.wikidata.org/entity/Q947460,Gelora Delta Stadium,112.705929,-7.44772
http://www.wikidata.org/entity/Q145885,Zamora F.C.,http://www.wikidata.org/entity/Q953887,Estadio Agustín Tovar,-70.207401,8.62443
http://www.wikidata.org/entity/Q138099,T&TEC SC,http://www.wikidata.org/entity/Q961115,Manny Ramjohn Stadium,-61.441673,10.303371
http://www.wikidata.org/entity/Q137747,Hong Kong Pegasus FC,http://www.wikidata.org/entity/Q992697,Hong Kong Stadium,114.1884444,22.27286111
http://www.wikidata.org/entity/Q140497,Zagłębie Lubin,http://www.wikidata.org/entity/Q1147191,Stadion Zagłębia Lubin,16.1975,51.413333
http://www.wikidata.org/entity/Q139399,Calcio Foggia 1920,http://www.wikidata.org/entity/Q1281897,Stadio Pino Zaccheria,15.5425,41.454444
http://www.wikidata.org/entity/Q142570,Swieqi United F.C.,http://www.wikidata.org/entity/Q1354010,Ta' Qali National Stadium,14.41537222,35.89486389
http://www.wikidata.org/entity/Q127945,La Paz F.C.,http://www.wikidata.org/entity/Q1369261,Estadio Hernando Siles,-68.122778,-16.499444
http://www.wikidata.org/entity/Q128020,The Strongest,http://www.wikidata.org/entity/Q1369261,Estadio Hernando Siles,-68.122778,-16.499444
http://www.wikidata.org/entity/Q144952,Zalaegerszegi TE,http://www.wikidata.org/entity/Q1415013,ZTE Arena,16.848611,46.848611
http://www.wikidata.org/entity/Q128148,Manisaspor,http://www.wikidata.org/entity/Q1507977,Manisa 19 Mayıs Stadium,27.4396,38.6233
http://www.wikidata.org/entity/Q152572,Al-Muharraq SC,http://www.wikidata.org/entity/Q1548284,Bahrain National Stadium,50.543664,26.153594
http://www.wikidata.org/entity/Q138663,Caïman Douala,http://www.wikidata.org/entity/Q1567328,Stade de la Réunification,9.71861,4.05556
http://www.wikidata.org/entity/Q155218,Rot-Weiss Essen,http://www.wikidata.org/entity/Q1656716,Stadion Essen,6.976389,51.486667
http://www.wikidata.org/entity/Q146063,Zanaco F.C.,http://www.wikidata.org/entity/Q1693079,Sunset Stadium,28.28333333,-15.41666667
http://www.wikidata.org/entity/Q138230,Kasımpaşa S.K.,http://www.wikidata.org/entity/Q1770357,Recep Tayyip Erdoğan Stadium,28.97222222,41.03277778
http://www.wikidata.org/entity/Q130770,Tartu JK Welco Elekter,http://www.wikidata.org/entity/Q1807497,Tamme Stadium,26.713728,58.366536
http://www.wikidata.org/entity/Q163386,Imbabura Sporting Club,http://www.wikidata.org/entity/Q1992605,Antonio Ante Canton,-78.21,0.32
http://www.wikidata.org/entity/Q130673,NK Varteks,http://www.wikidata.org/entity/Q2001923,Stadion Varteks,16.34416667,46.29333333
http://www.wikidata.org/entity/Q127904,CD San José,http://www.wikidata.org/entity/Q2017250,Estadio Jesús Bermúdez,-67.111564,-17.946211
http://www.wikidata.org/entity/Q127921,C.D. Jorge Wilstermann,http://www.wikidata.org/entity/Q2017250,Estadio Jesús Bermúdez,-67.111564,-17.946211
http://www.wikidata.org/entity/Q162472,FK Příbram,http://www.wikidata.org/entity/Q2326094,Na Litavce,13.976389,49.676944
http://www.wikidata.org/entity/Q162415,1. FC Union Solingen,http://www.wikidata.org/entity/Q2326113,Stadion am Hermann-Löns-Weg,6.98789,51.1601
http://www.wikidata.org/entity/Q162213,1. FC Bocholt,http://www.wikidata.org/entity/Q2326114,Q2326114,6.60944,51.855
http://www.wikidata.org/entity/Q128390,FC Oleksandriya,http://www.wikidata.org/entity/Q2347283,CSC Nika Stadium,33.103611,48.674722
http://www.wikidata.org/entity/Q136056,ZESCO United F.C.,http://www.wikidata.org/entity/Q2385498,Levy Mwanawasa Stadium,28.611389,-12.975
http://www.wikidata.org/entity/Q128022,Club Real Potosí,http://www.wikidata.org/entity/Q2408913,Estadio Víctor Agustín Ugarte,-65.761111,-19.578611
http://www.wikidata.org/entity/Q137499,FC 08 Homburg,http://www.wikidata.org/entity/Q2541925,Waldstadion Homburg,7.355,49.3161
http://www.wikidata.org/entity/Q127923,Oriente Petrolero,http://www.wikidata.org/entity/Q2628469,Estadio Ramón Tahuichi Aguilera,-63.183873,-17.796067
http://www.wikidata.org/entity/Q127921,C.D. Jorge Wilstermann,http://www.wikidata.org/entity/Q2705722,Estadio Félix Capriles,-66.16183,-17.379303
http://www.wikidata.org/entity/Q127925,Club Aurora,http://www.wikidata.org/entity/Q2705722,Estadio Félix Capriles,-66.16183,-17.379303
http://www.wikidata.org/entity/Q133520,Grêmio Barueri Futebol,http://www.wikidata.org/entity/Q2860815,Arena Barueri,-46.899444,-23.513056
http://www.wikidata.org/entity/Q151431,FC Van Yerevan,http://www.wikidata.org/entity/Q3495794,Alashkert Stadium,44.475231,40.154605
http://www.wikidata.org/entity/Q140487,Zagłębie Sosnowiec,http://www.wikidata.org/entity/Q3496230,Stadion Ludowy,19.10361111,50.27722222
http://www.wikidata.org/entity/Q157453,FC Okean Nakhodka,http://www.wikidata.org/entity/Q4113981,Q4113981,132.858,42.8129
http://www.wikidata.org/entity/Q156709,FC Neftekhimik Nizhnekamsk,http://www.wikidata.org/entity/Q4318126,Neftekhimik Stadium,51.8025,55.6334
http://www.wikidata.org/entity/Q162582,ŠK Futura Humenné,http://www.wikidata.org/entity/Q5090582,Chemlon Stadion,21.90511,48.92947
http://www.wikidata.org/entity/Q128048,Municipal Real Mamoré,http://www.wikidata.org/entity/Q5400235,Estadio Gran Mamoré,-64.893611,-14.82
http://www.wikidata.org/entity/Q128049,Guabirá,http://www.wikidata.org/entity/Q5400237,Estadio Gilberto Parada,-63.261423,-17.342855
http://www.wikidata.org/entity/Q128024,Club Bolívar,http://www.wikidata.org/entity/Q5400337,Estadio Libertador Simón Bolívar,-68.141111,-16.5125
http://www.wikidata.org/entity/Q130808,Chingale de Tete,http://www.wikidata.org/entity/Q5402220,Estádio do Chingale,33.59641,-16.16144
http://www.wikidata.org/entity/Q162923,Tiro Federal,http://www.wikidata.org/entity/Q5473025,Fortín de Ludueña Stadium,-60.69468889,-32.92934444
http://www.wikidata.org/entity/Q161812,IFK Luleå,http://www.wikidata.org/entity/Q7536143,Skogsvallen,22.16183333,65.59930833
http://www.wikidata.org/entity/Q131499,S.L. Benfica,http://www.wikidata.org/entity/Q7875112,Estádio da Luz,-9.184722222,38.75277778
http://www.wikidata.org/entity/Q162467,FK Drnovice,http://www.wikidata.org/entity/Q13407912,Sportovní areál Drnovice,16.9536,49.2756
http://www.wikidata.org/entity/Q155452,TuS Koblenz,http://www.wikidata.org/entity/Q14524078,Stadion Oberwerth,7.58661,50.3305
http://www.wikidata.org/entity/Q160057,Indiana Invaders,http://www.wikidata.org/entity/Q14688451,Indiana Invaders Soccer Complex,-86.3498,41.6908
http://www.wikidata.org/entity/Q162007,1. CfR Pforzheim,http://www.wikidata.org/entity/Q16850786,Stadion im Brötzinger Tal,8.66172222,48.88263889
http://www.wikidata.org/entity/Q162364,1. FC Pforzheim,http://www.wikidata.org/entity/Q16850786,Stadion im Brötzinger Tal,8.66172222,48.88263889
http://www.wikidata.org/entity/Q131215,SK Rapid Wien,http://www.wikidata.org/entity/Q17310225,Allianz Stadion,16.2653,48.1981
http://www.wikidata.org/entity/Q162407,Cuautla FC,http://www.wikidata.org/entity/Q18747745,Estadio Isidro Gil Tapia,-98.94888889,18.80694444
http://www.wikidata.org/entity/Q162350,1. FC Nürnberg (women),http://www.wikidata.org/entity/Q108063579,Sportpark Valznerweiher,11.13103161,49.43612154
http://www.wikidata.org/entity/Q692704,Berliner AK 07,http://www.wikidata.org/entity/Q176074,Poststadion,13.359444,52.53
http://www.wikidata.org/entity/Q723483,FC Irtysh Pavlodar,http://www.wikidata.org/entity/Q190789,Pavlodar Central Stadium,76.949712,52.276383
http://www.wikidata.org/entity/Q686659,WSG Tirol,http://www.wikidata.org/entity/Q204484,Tivoli Stadion Tirol,11.410789,47.255972
http://www.wikidata.org/entity/Q702455,RB Leipzig,http://www.wikidata.org/entity/Q210466,Red Bull Arena,12.348056,51.345833
http://www.wikidata.org/entity/Q699184,SK Austria Klagenfurt,http://www.wikidata.org/entity/Q216167,Wörthersee Stadion,14.278281,46.608847
http://www.wikidata.org/entity/Q720872,Real Avilés CF,http://www.wikidata.org/entity/Q259637,Estadio Román Suárez Puerta,-5.9306,43.5575
http://www.wikidata.org/entity/Q723471,Shamakhi FK,http://www.wikidata.org/entity/Q390733,ASK Arena,49.897711,40.410986
http://www.wikidata.org/entity/Q693909,FC VSS Košice,http://www.wikidata.org/entity/Q392288,Lokomotíva Stadium,21.244497,48.740836
http://www.wikidata.org/entity/Q692691,SV Elversberg,http://www.wikidata.org/entity/Q474858,Waldstadion an der Kaiserlinde,7.12167,49.3186
http://www.wikidata.org/entity/Q692186,FC Lustenau 07,http://www.wikidata.org/entity/Q489700,Reichshofstadion,9.65278,47.4211
http://www.wikidata.org/entity/Q696507,SC Austria Lustenau,http://www.wikidata.org/entity/Q489700,Reichshofstadion,9.65278,47.4211
http://www.wikidata.org/entity/Q714581,Nea Salamis Famagusta FC,http://www.wikidata.org/entity/Q582868,Ammochostos Stadium,33.613207,34.929818
http://www.wikidata.org/entity/Q692646,Club Atlético Banfield,http://www.wikidata.org/entity/Q599468,Estadio Florencio Sola,-58.387544,-34.750847
http://www.wikidata.org/entity/Q695939,FK Khazar Lankaran,http://www.wikidata.org/entity/Q600569,Lankaran City Stadium,48.857131,38.747189
http://www.wikidata.org/entity/Q690410,FC Bern,http://www.wikidata.org/entity/Q632721,Stadion Neufeld,7.43127,46.9609
http://www.wikidata.org/entity/Q699686,SC Schwarz-Weiß Bregenz,http://www.wikidata.org/entity/Q643870,Casino Stadium,9.73478,47.5034
http://www.wikidata.org/entity/Q683779,FC Yverdon Féminin,http://www.wikidata.org/entity/Q677343,Stade Municipal,6.647056,46.783297
http://www.wikidata.org/entity/Q721560,C.D. Universidad de Concepción,http://www.wikidata.org/entity/Q683218,Estadio Ester Roa Rebolledo,-73.023333,-36.815278
http://www.wikidata.org/entity/Q691494,FC Nordstern Basel,http://www.wikidata.org/entity/Q683648,Stadion Rankhof,7.620013888,47.56119444
http://www.wikidata.org/entity/Q719719,C.D. Palestino,http://www.wikidata.org/entity/Q685284,Estadio Municipal Sin Iluminacion,-70.67277778,-33.52083333
http://www.wikidata.org/entity/Q705581,Sobaeksu Sports Club,http://www.wikidata.org/entity/Q708572,Yanggakdo Stadium,125.743525,38.99154722
http://www.wikidata.org/entity/Q690787,S.S. Folgore Falciano Calcio,http://www.wikidata.org/entity/Q728131,San Marino Stadium,12.476972,43.97125
http://www.wikidata.org/entity/Q704873,FC Lusitanos,http://www.wikidata.org/entity/Q857795,Estadi Comunal d'Aixovall,1.487667,42.476389
http://www.wikidata.org/entity/Q698702,Admira Wacker,http://www.wikidata.org/entity/Q872250,Datenpol Arena,16.3109,48.0976
http://www.wikidata.org/entity/Q692586,VfR Aalen,http://www.wikidata.org/entity/Q872808,Ostalb Arena,10.072222,48.840556
http://www.wikidata.org/entity/Q685260,FK Jezero,http://www.wikidata.org/entity/Q927895,Stadion Pod Racinom,19.9402,42.5988
http://www.wikidata.org/entity/Q679638,CR Belouizdad,http://www.wikidata.org/entity/Q939080,Stade 20 Août 1955,3.078511,36.745633
http://www.wikidata.org/entity/Q719722,O'Higgins F.C.,http://www.wikidata.org/entity/Q991407,Estadio El Teniente,-70.7375,-34.17777778
http://www.wikidata.org/entity/Q690045,FC Le Mont,http://www.wikidata.org/entity/Q995122,Stade Sous-Ville,6.525,46.78833333
http://www.wikidata.org/entity/Q690496,FC Baulmes,http://www.wikidata.org/entity/Q995122,Stade Sous-Ville,6.525,46.78833333
http://www.wikidata.org/entity/Q688300,S.C. Beira-Mar,http://www.wikidata.org/entity/Q1032105,Estádio Municipal de Aveiro,-8.593611,40.6475
http://www.wikidata.org/entity/Q685182,K. Beerschot V.A.C.,http://www.wikidata.org/entity/Q1057087,Olympisch Stadion Antwerp,4.382222,51.185
http://www.wikidata.org/entity/Q692856,Shonan Bellmare,http://www.wikidata.org/entity/Q1071188,Shonan BMW Stadium Hiratsuka,139.341263,35.343608
http://www.wikidata.org/entity/Q692755,SG Sonnenhof Großaspach,http://www.wikidata.org/entity/Q1122869,WIRmachenDRUCK Arena,9.393005,48.980485
http://www.wikidata.org/entity/Q692755,SG Sonnenhof Großaspach,http://www.wikidata.org/entity/Q1122869,WIRmachenDRUCK Arena,9.39413,48.9799
http://www.wikidata.org/entity/Q700455,Pyongyang City Sports Club,http://www.wikidata.org/entity/Q1137515,Kim Il-sung Stadium,125.7576944,39.04372222
http://www.wikidata.org/entity/Q699746,TSV Hartberg,http://www.wikidata.org/entity/Q1232645,Stadion Hartberg,15.9772,47.281
http://www.wikidata.org/entity/Q690272,Kremser SC,http://www.wikidata.org/entity/Q1243740,Sepp-Doll-Stadion,15.5981,48.4064
http://www.wikidata.org/entity/Q678978,Sociedade Esportiva Tupan,http://www.wikidata.org/entity/Q1309033,Castelão,-44.259722,-2.548611
http://www.wikidata.org/entity/Q679572,Pietà Hotspurs F.C.,http://www.wikidata.org/entity/Q1354010,Ta' Qali National Stadium,14.41537222,35.89486389
http://www.wikidata.org/entity/Q693926,FC Eintracht Bamberg,http://www.wikidata.org/entity/Q1362092,Fuchs-Park-Stadion,10.9289,49.9006
http://www.wikidata.org/entity/Q697353,UD Salamanca,http://www.wikidata.org/entity/Q1369248,Estadio El Helmántico,-5.665,40.995278
http://www.wikidata.org/entity/Q719344,C.A. Cerro,http://www.wikidata.org/entity/Q1369351,Estadio Luis Tróccoli,-56.25194444,-34.8675
http://www.wikidata.org/entity/Q680336,UD Melilla,http://www.wikidata.org/entity/Q1369477,Álvarez Claro Municipal Stadium,-2.949444,35.285
http://www.wikidata.org/entity/Q719338,Matias Aliaga FC,http://www.wikidata.org/entity/Q1369589,Estadio Elías Figueroa Brander,-71.64,-33.02227778
http://www.wikidata.org/entity/Q679449,Clube Atlético Vila Rica,http://www.wikidata.org/entity/Q1370732,Estádio Estadual Jornalista Edgar Augusto Proença,-48.444,-1.381111
http://www.wikidata.org/entity/Q700047,TSV Schwieberdingen,http://www.wikidata.org/entity/Q1404192,Felsenberg-Arena,9.07222,48.8825
http://www.wikidata.org/entity/Q683351,Syrianska FC,http://www.wikidata.org/entity/Q1568614,Södertälje Fotbollsarena,17.568882,59.188354
http://www.wikidata.org/entity/Q694464,FC Gütersloh 2000,http://www.wikidata.org/entity/Q1594264,Heidewaldstadion,8.388333,51.891667
http://www.wikidata.org/entity/Q689874,Philadelphia Union,http://www.wikidata.org/entity/Q1637843,Subaru Park,-75.378889,39.832222
http://www.wikidata.org/entity/Q697322,FC Gratkorn,http://www.wikidata.org/entity/Q1776570,Sportstadion Gratkorn,15.3385,47.1298
http://www.wikidata.org/entity/Q702337,Freiburger FC,http://www.wikidata.org/entity/Q1958177,Möslestadion,7.881192,47.983942
http://www.wikidata.org/entity/Q693092,Racing FC Union Luxembourg,http://www.wikidata.org/entity/Q2263835,Stade Achille Hammerel,6.140277777,49.60472222
http://www.wikidata.org/entity/Q690074,FC Gossau,http://www.wikidata.org/entity/Q2312361,Q2312361,9.2543,47.4104
http://www.wikidata.org/entity/Q695008,FC Viktoria Köln,http://www.wikidata.org/entity/Q2312740,Sportpark Höhenberg,7.03039,50.9452
http://www.wikidata.org/entity/Q700053,FK Pirmasens,http://www.wikidata.org/entity/Q2312745,Sportpark Husterhöhe,7.59587,49.2169
http://www.wikidata.org/entity/Q692571,Viktoria Aschaffenburg,http://www.wikidata.org/entity/Q2326122,Stadion am Schönbusch,9.12991,49.9703
http://www.wikidata.org/entity/Q697473,FC Swarovski Tirol,http://www.wikidata.org/entity/Q2436207,Tivoli,11.4055,47.2586
http://www.wikidata.org/entity/Q696514,SV Grödig,http://www.wikidata.org/entity/Q2498860,Untersberg-Arena,13.0477,47.7434
http://www.wikidata.org/entity/Q700029,VFC Plauen,http://www.wikidata.org/entity/Q2530329,Vogtlandstadion,12.1259,50.5235
http://www.wikidata.org/entity/Q722551,Al-Nahda,http://www.wikidata.org/entity/Q2650633,Prince Mohamed bin Fahd Stadium,50.1141,26.4272
http://www.wikidata.org/entity/Q693951,PFC Spartak Nalchik,http://www.wikidata.org/entity/Q2660798,Spartak Stadium,43.590338,43.469537
http://www.wikidata.org/entity/Q692997,Club Sport La Libertad,http://www.wikidata.org/entity/Q3067683,Estadio Nacional de Costa Rica,-84.107878,9.9365
